rank,hotspot address,packet count,name,owner,lat,lng,location,reward scale,city,country
1,13zVy1ZE5mNzaqhtKYCZrGfW2PMw3uDWwepk89otGZjJM8s9CW6,433766,odd-fern-alpaca,14rz1NX8YKxwiQ5cBzyPk1qtQUiTU8sdPzLrvJW4VvC5tV1TkJE,30.476935717564743,120.45987027850187,8c309a076898dff,,Jiaxing,China
2,14bKQy9TNDR5nqm3cutfqCUHE6CEbkQMDHdp5QmifbQsHahCRD7,365850,calm-daffodil-walrus,13jVDCYTREMo8uBuc8MRNPo6aRNiCXiDm5YQTHJo94JmLNUUxXQ,0,0,,,,
3,134uta9cGXiAHqfEAtfzk1J9E4U4ruUupppwn7CDMeY8KTCkUMR,273722,upbeat-burlap-porpoise,13nuvmJzJ9YqJXDLYuKEKv8RjqrqkH1dt95qhKDhgxMB8KdjwNa,0,0,,,,
4,14JzhSgLNoxSXEYcAH2vRQjXDjwzonE7NgFoZCWVvwwNdRDAUyp,241036,sticky-hickory-kestrel,1492SA4GTKPm6yDV5YWp9YWADC97WVcADK4NCoHx5ULKqe728Ra,0,0,,,,
5,14im8uGcWNBBxwB23ud13ckakng7UUDFoifAuhAXJ346rZPCoHb,238830,merry-violet-unicorn,1492SA4GTKPm6yDV5YWp9YWADC97WVcADK4NCoHx5ULKqe728Ra,0,0,,,,
6,14d5F3Fg2XAviu6U5qrgHkzG9xrHUy8vo1DTvPndej5G5BqeDq2,227499,prehistoric-pear-osprey,14UZoPuxvmeDRzoh2yZeAvyLs27bQ3T6C3zajfUs5RhZwuZop9K,24.172485009844163,120.6530725730239,8c4ba294ed70bff,,Xitun District,Taiwan
7,13sZ8yJkLQvZWbZcmF6Ns52mKaqhmJaRwVvgMcqgkbQrrR3X1Eo,216388,lively-blush-yak,13Nuu4NUiDRftsvGM7ykJP6USuP8svN9AYgqYDZB2opU9uy52WQ,0,0,,,,
8,142MqjT3X6GkDLg1dpq4Te7EJ1uwaVLNYNknZz5jTH7pgHjLYJc,206293,low-quartz-meerkat,13nuvmJzJ9YqJXDLYuKEKv8RjqrqkH1dt95qhKDhgxMB8KdjwNa,0,0,,,,
9,13Pnd6d1GZGnoKbyH7CDC2ieyEpw4tfuBgFTZkmRAyKDNQi6cSi,196044,mythical-silver-swallow,13jVDCYTREMo8uBuc8MRNPo6aRNiCXiDm5YQTHJo94JmLNUUxXQ,0,0,,,,
10,14aPUYCgDVPLwvrBh1QReoSwpeXVhB3tRKPhCgWZVEcqLDCSNjo,185091,cold-khaki-sidewinder,13X9PZnjCNjVUBeNbm7w3hdT1SggprAnVjEcfB9KcNfzW6Wpe2M,25.054902996884007,121.55983763683025,8c4ba0a4c1317ff,,Songshan District,Taiwan
11,14sgCYtB1s2LVeGKa9zDz3TBKx28x7bLSe6kmRjLPehNxbXsB8p,176900,alert-tangelo-snail,138JBYNYMUcBzy8Uokd64ChDjmb5XJM9Cy9ZsiSHvAx3htkRd3J,0,0,,,,
12,112AtpCpp8gHvwmKZjVPmjwAVQmVw3JVruJzCmd3VvPUHLbBiGcj,147516,thankful-latte-boar,14NZZcvUQdQWzfzXS2udaAdksheeC3Skg8xqrQ7F4SgzdG7nGoh,24.77966966215504,121.0730666264136,8c4ba01090859ff,1.0,Qionglin,Taiwan
13,14t6w8zB8K3X8WLJ5bdFU3pCBizcDQk8ANgTqnsquEJrhnFjSsF,131188,hollow-pistachio-octopus,14cWd8TxKWY4MudkCrtCuwowuo3sbMcgvPDVW8vjR9Bso3CCih2,0,0,,,,
14,14fkSkrDV5dMsmfm8pkcwe6USJkjqjqt56YiwiwpwvW99h7Yeas,125749,howling-red-tadpole,14VhXhKG8Rj5QRJ3mUx6rHP7DbXPYirCyMehv2mdUs9hioAkz5M,52.57946424989415,7.748393003588813,8c1f10db48cabff,,Bippen,Germany
15,14c923BuGkcHY28jstpScsPQKFRgEsQFRjdEtNZSfi6NN72tir6,125395,jumpy-metal-pig,13nuvmJzJ9YqJXDLYuKEKv8RjqrqkH1dt95qhKDhgxMB8KdjwNa,0,0,,,,
16,13dZn4CNsDiHEXb9s3K2UQrvVAoxufrgvZDgW6onAcfAmta4zW9,124636,chilly-cerulean-rat,13Nuu4NUiDRftsvGM7ykJP6USuP8svN9AYgqYDZB2opU9uy52WQ,0,0,,,,
17,13bQEfJhsYEWfauQxWDMXPLgvsKkasmqgopYyvZSqkRzLp68p6M,109803,vast-candy-porcupine,13CqpM7hvmyw8e8sURPEFL3SDEwjyqvME6ChyFAK7rbiSZGQiD4,51.05271431591662,8.141275694101102,8c1facd265ae3ff,,Kirchhundem,Germany
18,112Hjg1QmogsTZDDSNt7MqA6qKWNB81Af5zzwkku6nyqoKZPtYFj,106963,early-taffy-mule,14t8ACfXzAEHMBtAMmPjrxCJmpKn3htuB5p7QCZHfZuhBgCJUBA,24.84544167767512,121.01601711979743,8c4ba012c84b1ff,1.0,Zhubei City,Taiwan
19,13t13oEHJZLNfeWyFZwcGgSHiyN7oGdpR1TRkGpiTpakwwfxVTU,106188,atomic-wool-nuthatch,14bhFYCJnyKXCf4HesjRFmtTSwHHNvBURcSGy2bEraFtf6PB5Dw,22.680419997474758,120.35284824063079,8c4bb10027327ff,,Renwu District,Taiwan
20,13Vp22dDgkpGQtAmeP5YRTUjBrJogKhgvmSSVknPX9QD3VrxYDq,95962,sparkly-lilac-corgi,13jVDCYTREMo8uBuc8MRNPo6aRNiCXiDm5YQTHJo94JmLNUUxXQ,0,0,,,,
21,147NNjpJ6T5yR2XVrXfy5wtJUFeUSU7wkGsHW1h2UwPmAa3DvXs,91682,scruffy-plastic-toad,1492SA4GTKPm6yDV5YWp9YWADC97WVcADK4NCoHx5ULKqe728Ra,0,0,,,,
22,112nKjVqrJ6fjqu66nwvo8RTHgUU1MPnJPi41jMjkiihrJeUHZvH,90416,real-daffodil-rat,14P7CcUkXmsdTGLJsZsFssWrnZ1iGUm2gJbwYn2tgeEARB6GJqa,24.8044792180282,121.03107005358345,8c4ba012a22abff,1.0,Zhubei City,Taiwan
23,112ZzscUB42pMFN9PwfWdicEmFJWGjemGKzYgBVgRDm7ihUJcuQs,89758,rhythmic-cloud-otter,13ZCx984mSb5xk26VfxAVdqZyFrWng7eDv7j6F6kN2xw3uN6HJu,24.881747121970378,120.99608732509505,8c4ba08d47467ff,1.0,Xinfeng Township,Taiwan
24,13iWZCMjztLN4LNVaghiYdbFGKjXv2NENCX87uUrh2SFa1SBo8d,89499,original-plastic-bison,13xzi5e81NGimQKLRbPzRUPkTipAbek6YaUC1pwLBuwPjGGASbk,24.991140906069102,121.24562577300942,8c4ba0babc045ff,,Zhongli District,Taiwan
25,13LcyXkmsvCprWHapM2aE2afePLiSTXfvpDPpoNU1Uv78h8rfws,79829,long-spruce-swan,14cWd8TxKWY4MudkCrtCuwowuo3sbMcgvPDVW8vjR9Bso3CCih2,0,0,,,,
26,11nGwoNt2Fs61FzksRHx2Wqf2qZt9PPANbFLZ6Mzf9ETevVsGwp,75851,clean-canvas-beetle,12zDEF9xuePmV1CPcRG7HrmDcQN1vBrCC8yaZ7mfxzWcd8hcqGw,17.685786228605526,73.9925585511518,8c608c2859019ff,1.0,Satara,India
27,13D9kbHdSdf9AFzVoqvdwNTxuhtDTPrpdiCi7XHhCXfGwGyTENX,70997,chilly-lava-mink,13Er4JTHWB5uHLfYs4Ho52juhjwBJHnnBQ9qtzVH6jaVhU5b2h5,0,0,,,,
28,1129B8291VaQe3edLLyVzqc3tQjb7bih5Suv1sWkc9wBp6MrwW29,67982,cold-bamboo-pangolin,13Pyq15pSQDwBpXixTKieHY6RujNudYRP5a2tf6eEjneWnPLqmw,24.873800710278317,121.01433997711091,8c4ba08d030c5ff,0.6666717529296875,Hukou Township,Taiwan
29,1124dMWjC4nzCaL9JDhJ6TYRpGhqpQyYd67rXSSPKPy6prsbW8as,64850,quaint-currant-lion,13g9XtVkKrbnJzKTqwCmuSedPHdtN1KjeVE8AoD7yQZvfJCeGab,25.043607143162696,-77.30116449127259,8c44b56aa6c6bff,1.0,Nassau,The Bahamas
30,11hnUqebiyw9AJQpsrj6gjzFuQ1JLCDZf53zp9EMGCAibmDEuqb,52390,sunny-white-swallow,13oZGv7bbzChNoKwP575HK6Lb7rmdCFiSeKjpiFFc7BFHqdKYHV,24.84473690314558,120.95655942753618,8c4ba0124b933ff,1.0,Zhubei City,Taiwan
31,11Sfek6jXpH9n3JwfxLEfshdWVZKGFH6XCV9nJDfS6KGFw2BACN,51081,smooth-teal-cricket,13oZGv7bbzChNoKwP575HK6Lb7rmdCFiSeKjpiFFc7BFHqdKYHV,24.846606616214846,120.98806512017399,8c4ba0125273bff,1.0,Zhubei City,Taiwan
32,14P2pfG65AwxgCc9s7WV3hZqcHLcKJSJQdCeCegXh9FegudRoZy,50503,interesting-chiffon-mule,13Er4JTHWB5uHLfYs4Ho52juhjwBJHnnBQ9qtzVH6jaVhU5b2h5,0,0,,,,
33,11NAWWXXuUk5hnbUgB4jy2QzWRh58SQV7GCcyVWGJnPQujaPbPW,48476,howling-fiery-peacock,148zLFS2WmHWmhZJK3GkPKfP9iRV6XCX2jUzgZEhUS5d6FkgyZf,25.029625858430446,-77.304612924176,8c44b56aac53bff,1.0,Nassau,The Bahamas
34,112hwndr1VDqQmu6ij8q9qihp31Bjen6bCTLRFzXLW51xLv9GcQ7,47225,fun-foggy-shetland,12zDEF9xuePmV1CPcRG7HrmDcQN1vBrCC8yaZ7mfxzWcd8hcqGw,17.68555138338832,74.00466568220551,8c608c2a35497ff,1.0,Satara,India
35,112MrNpvqLQCTVmfk3U9Bo5sN9LQy5J3HQpEwuhdycu7PW5Bhy8s,46831,recumbent-sapphire-snake,14o11pCiryYNdDDBdGx3L6ryiGWnacgBhaJK16jkiRnrKgor1c9,45.259696979509464,19.826573130163656,8c1e1b10520e7ff,0.319366455078125,Novi Sad,Serbia
36,112KUB441xyyfbhyYPyX7iUTmqiVHHzWiV94fKfh46LrEaoLfbXe,46557,savory-lime-koala,14SphVV4hRmo88XrFbC1Wk7FFhn9jd5itXTAmqMuAY44yquifLL,41.50270923174559,-87.47447284708547,8c26640ab51e3ff,0.5,Schererville,United States
37,11ND5n3JCqX6bTLFvBJ1rThYYeCUv6P1MBFaYQu3jcwo2gk4Vhe,43263,electric-grape-puma,13d9aW2y1yoRvdNfvPWkAbFvQs2hHmpmCkvY95SpLywDSpVFXE9,24.838129733347138,120.97572407052427,8c4ba01257b21ff,1.0,Zhubei City,Taiwan
38,112ch7bdJh9kdMMGyruz5fvhzGb5Nr6Ry35dbEcfrX4SjJ1GXuii,40679,tangy-violet-mole,14KikykRxFcx8FpXNmCVRg11RS6Qg64zQFGhsyYihodubR46re5,46.48036154095675,11.305482930386749,8c1f8b50001adff,0.757568359375,Bolzano,Italy
39,11aRmoiFym51bs8AJJb3nUcWW6UybFPk2RM6hsbQLLxHjHzyNXR,40123,spicy-metal-sawfish,14goYgVkSA5mfnrnRvUvMrwFcjDySXM1MeMgaaopFewDSsH91UA,55.77306414022378,13.09384275025625,8c1f2e48a6587ff,1.0,Kävlinge V,Sweden
40,112wGV3wt3oKAtgE8z5S8Yv6YWp8XQ8Jx3qmgniJNrqhmC582Rty,39904,dandy-rainbow-aardvark,13VwFXCVmPiryyGWq68Lj5cBucvtAYeNuUD1NUzAzaQXVGgiyvM,24.866224142396618,120.98495931060029,8c4ba08d6001dff,1.0,Xinfeng Township,Taiwan
41,112okzK1NiDyxpyLoBZadCCsEjjveRkXJavLCQcBjHsxwH8BatLk,38824,huge-bamboo-fox,139o6jwQvtquNRhovYJkUjVvqTxofBbS97wqKiUZ3MUgjPxUC78,45.26230240845686,19.824090477567257,8c1e1b10531dbff,0.479034423828125,Novi Sad,Serbia
42,112VmWTqB16gRV3YWNaykTiUAxJjLcSg9x2twwWNG9zhPEsiMJ5D,37882,smooth-rosewood-hare,13BRXognWPMPRFVKVQqnft5ts1VWnco9wYrTE88FgKsENvx6RNv,50.067361929963994,19.968508026830325,8c1e2e684dad9ff,0.469482421875,Kraków,Poland
43,11XjywLeaKxWiCUtQ9ZnAextgBFKT4UYww1fH51EKdQzUaPad8W,36161,daring-citron-barbel,13eNNnFea8EkHxhk8gmLPSYxxJRRfjbKeKtgPodzf6KYnBvokT3,50.586803170388286,8.655690667446665,8c1fac470d5bbff,0.6756744384765625,Gießen,Germany
44,14gSFXeJiuSKKi2QWdy61jW2yrXMKwowbzAwhnc7T9UhE8vbksg,34751,,,0,0,,0,fail,fail
45,112TyKxy2hR6TE9a9XC4WuHZsnMHspQ7ziE8Sx9ZB8tZXfiq4C2z,33419,flaky-chrome-armadillo,13kCYvtL3AwQvyW6eLPncJGFUWqZEixC8gHXRSk6cs52Ln3GDuW,46.47493980754492,11.329956937671346,8c1f8b5014d63ff,0.757568359375,Bolzano,Italy
46,11npZsFTPjND7bZZfnk2mcQfryaQJDRYWcr2nwiy584bdvc6pAY,31916,rough-mango-starling,13ZCx984mSb5xk26VfxAVdqZyFrWng7eDv7j6F6kN2xw3uN6HJu,24.85290592093296,121.01478205162513,8c4ba08d351cbff,1.0,Hukou Township,Taiwan
47,11fTs1fU7aHJbHEQik6H45c1UYvY7gKFSgT5kmXpVZCZQriTBmN,31381,late-glass-fox,14dcKPRGtcUvArj8A8WkCkGjj6iVJD4kWtVYzKKB6TYyTEFbxz1,32.847394605556175,-117.27247767708823,8c29a400c5103ff,0.6042327880859375,San Diego,United States
48,11kiphZgAcz83tkstnDhY7toxbg3w59JWHH1gLXAMoBDKassAao,30040,zealous-slate-shetland,13oZGv7bbzChNoKwP575HK6Lb7rmdCFiSeKjpiFFc7BFHqdKYHV,24.83341140800321,120.96951977146159,8c4ba01208427ff,1.0,Zhubei City,Taiwan
49,11x2mZ7grFQQ49eJKzvAo2bVPZwXATDzmYsNPx4XJz97GXX44Nr,29708,flat-daisy-cougar,13StoaEnP96iwgXSLwH7ddEQDcvLw5LvfzGozDFcxeADGcTL1TA,50.067119829693766,19.973320506925273,8c1e2e684c2d5ff,0.469482421875,Kraków,Poland
50,11UVMNbmESJs4ehe27i1eGU4PwWU8ZLYRbwaU5kYjxgTH7oExDu,29596,slow-bronze-zebra,13d9aW2y1yoRvdNfvPWkAbFvQs2hHmpmCkvY95SpLywDSpVFXE9,24.82252664621486,120.9815898768472,8c4ba0123962dff,1.0,East District,Taiwan
51,11CZLkuk4FtrZWwFNez3Vnho2TEfy2s4Mup2YyAnfRNSEEPtTvr,29387,broad-taffy-yeti,14KPmeiCt7DG99iu4CGxdNvrGs2VvYZ4vALH1ZstK2ThEwKYb8v,24.891903906425362,120.97355426598405,8c4ba08f24e27ff,1.0,Xinfeng Township,Taiwan
52,11GoorzrA8ihtgV5VLcjhU8ddsiDGnTqdRV8pGmUtgANP4YxNWV,28856,melodic-plastic-kitten,13vBGLqJxAekDPFeovbUobbuoS6d4CnESz9xyCvJgYPvmRHeXhA,49.22907240212727,-0.3016903129426219,8c1865486af0bff,0.5,Blainville-sur-Orne,France
53,11j6oEsLjW1AhNH5VrzaPy9tk4m8ibhxCy1ZLAuNaYMGvk4tqm7,27776,sparkly-hickory-beaver,13ZCx984mSb5xk26VfxAVdqZyFrWng7eDv7j6F6kN2xw3uN6HJu,24.894455447088383,121.0390291037788,8c4ba08c272d9ff,0.5,Hukou Township,Taiwan
54,11xGyk1366nzvKX743tUpugwuykVvxwjgtoq99YPrqeDABCd7JQ,27602,feisty-slate-shetland,14KPmeiCt7DG99iu4CGxdNvrGs2VvYZ4vALH1ZstK2ThEwKYb8v,24.873100838438404,120.98091150994469,8c4ba08d68313ff,1.0,Xinfeng Township,Taiwan
55,11VSF76H2hTp8NqmAWGjP5oQjadyeFgWxLp8fY62LMfUctt48k,26806,dapper-snowy-boa,14SRjiLUs1RcRw6uf7DuBUcvhBAubs3oFuqech1qZ6BJGSTYW9x,26.578399311746647,-81.98127224839827,8c44133b51b3bff,0.398406982421875,Cape Coral,United States
56,11GpxNNzU2hjP7oVmo8is1nKXAX3ekaGPCt3P33eWvWhdCD5deq,26543,tart-taupe-dragonfly,14iSeLL6DVGJWWN3EBb7LbyAtmu2XZpuFpvQhSoVTr7UTJ1esvB,36.257104420805845,-115.2273162885759,8c2986aae3a97ff,0.4105072021484375,Las Vegas,United States
57,11Cimz78HAYrjHpQbeHfvbpERfmjciJZCkzft5kGap49dE9JJWW,25299,mammoth-sapphire-poodle,14SphVV4hRmo88XrFbC1Wk7FFhn9jd5itXTAmqMuAY44yquifLL,41.47919069956328,-87.47020286792501,8c266408d028dff,0.5,Schererville,United States
58,112BM48AYYn18ymvWG6cdX5sD4DbjXMmWqJRdRyTmmZFgAvuQsBp,24586,furry-blood-piranha,138guaQXxtnKKu9ZsxQqPkHo4QJHExonVyEaAPoogXWw3Ufxv4f,26.58397130131848,-81.98961262099436,8c44133b5a8a3ff,0.398406982421875,Cape Coral,United States
59,11bk6ueG22MwufTaN4NhV4JrcH9zQHpbDnD2seeF4UFCRKxCh64,24284,colossal-pastel-scallop,14SRjiLUs1RcRw6uf7DuBUcvhBAubs3oFuqech1qZ6BJGSTYW9x,26.612952276876246,-81.95819907401187,8c44133b33a23ff,0.398406982421875,Cape Coral,United States
60,11C1TZsXwU4uQWwVxM1v7UMPqE1hD4UcgCX2KrN5tW5SgDszz73,24124,big-taffy-marmot,14t8ACfXzAEHMBtAMmPjrxCJmpKn3htuB5p7QCZHfZuhBgCJUBA,24.812355746327146,121.01885263004588,8c4ba012a9527ff,1.0,Zhubei City,Taiwan
61,11wgxSGeNdQ1m8Jn2neasrKzgXsq9ugUTVE8q5wQZwqiT2JiRMo,24115,overt-raspberry-rat,14QTZ4jF7QvHvPSpaxB8oVhK2tBx9dWHMPdVDyyD2wNf5f64Kss,46.463242351148416,11.340383664402678,8c1f8b5032411ff,0.631317138671875,Bolzano,Italy
62,112SYCDJkCVrbAdMuqBNWV9Ltrjx5Ztk3RTXn6EmjrQGpShrnV3H,24063,blurry-butter-snake,1348ZrYFApHARHYQduP1PALpKWaGoMTfSUPAsgbMkL2WZ2K1b7C,25.05538561336885,121.61040210435313,8c4ba1d326aadff,0.22222900390625,Nangang District,Taiwan
63,112DU1AdftAcEAxEpTLfeav7wsUDr5Tqzg1iPT6LGkvb9Z6UGtNs,23410,custom-flaxen-pigeon,13ZCx984mSb5xk26VfxAVdqZyFrWng7eDv7j6F6kN2xw3uN6HJu,24.93522515621945,121.0014142344455,8c4ba08f19221ff,1.0,Xinfeng Township,Taiwan
64,112FDH8zUCdiqBDCynvBL2RRGHHE3tbXcmDfQ573FXZnfrHSgQxx,23389,powerful-daffodil-trout,14t8ACfXzAEHMBtAMmPjrxCJmpKn3htuB5p7QCZHfZuhBgCJUBA,24.910766906765968,120.97953024038594,8c4ba08f048c3ff,1.0,Xinfeng Township,Taiwan
65,112m6LBngTnSHeH677jvEF6uQnMZ9Gz6Cv8oZ62GZbrQki2TVQzg,23022,itchy-hotpink-kitten,13Bepm98dMq8YpPaseJqU1KoWyqHFnoDu61rfSgds8q3gaUqvh8,37.39276692996049,-76.27538576101294,8c2af61264593ff,1.0,Mathews,United States
66,112WWx3PcX7LHrdSMVZvMkmgQSdCHfpsZvbWAaBT5JCKudVeesCM,22856,calm-flaxen-wasp,13Qi5XUxxZCg1PFNgYCfJ2isuFfdSvnTaWAphBENVpMMgQLCQQf,22.547245327096984,114.12876794199144,8c411cb9acb13ff,0.96649169921875,Shenzhen Shi,China
67,11ZiksiT3dRKr2YXSJ4YiZSSpUbeiKEinAwJoEQKEwwc1TRah6T,22748,obedient-vinyl-raccoon,12wsSLV6Q27MxEvzFFpMmZkAYjMXSA81Bfcbyk6VCxcZdJhELig,26.574780082151378,-81.97340621523382,8c44133b42731ff,0.398406982421875,Cape Coral,United States
68,112orA8SRFD5AyH6izqGctChWPBoGaSTbuJnrL9Yt3UoejhCkybT,22654,electric-tan-kestrel,14j5odXmAD9Drw1atUYs5ijw2PY6QtZiWxU5NeyFNSaN1NiZass,26.578441360333677,-81.98869457470035,8c44133b58c8bff,0.398406982421875,Cape Coral,United States
69,11BNUdJBW6rjigc8fdKBNYC8fB4wdVfradMz4MBZAu8Xg6avzqe,22303,short-fossilized-pheasant,14YQU273MLdKC39zjHvpUaUq55LAtAVb3WzyXFDxoPZWxbgjA3b,48.91974655528267,2.461556105037959,8c1fb42913141ff,1.0,Drancy,France
70,112bpcCFMX5P3G25NsD5PgZVV9vxcw4Sv5gDfvpbx7vgyW2fkq5p,22217,raspy-boysenberry-bull,14SphVV4hRmo88XrFbC1Wk7FFhn9jd5itXTAmqMuAY44yquifLL,41.50574647114326,-87.46700555824124,8c26640abc083ff,0.5,Schererville,United States
71,11U2spJ3acFTnggPefVnRf3Sw25P9vsHa9qYz8Jc4zPo7YL3YD,22024,recumbent-gauze-yak,13cUELSxcTsCvbbvapX9DtWBeYjnz5gJiX3Ehz1CunBDAbk1v68,26.57906654658717,-81.99826057047956,8c44133a67b01ff,0.398406982421875,Cape Coral,United States
72,112cwzLyTHyzxyuWTkTTqGvE9ngXbX8KEVAPjzQ3gGmUzUvm8VZq,21777,daring-cinnabar-eagle,13eLmgwf9Pp2ri52moQ1Ke6vmZJKNo5qXCMtFsQ5D5MKBUEtdwB,46.49022256730492,11.357664156048008,8c1f8b50cc24bff,1.0,Bolzano,Italy
73,112WFDZ3MHHb3VHxu8LW4sK4GB6XCA9r8xcwbj8yYae4GhyZGBwt,21774,acrobatic-opaque-swan,1431ywDsZfKhaNhi8RJguMRvMbttMkVhFYEdHYrdDZo73wLNNWq,46.51031539778753,11.401138642151787,8c1f8b576d8edff,1.0,Signat,Italy
74,11Q63euUamcdq6gf6XPKtEHSYH9GRYjxGopreC1QCq4YZoV3k3F,21258,brave-cloth-frog,14NdYhMByheXjC6nXe2QuarszoFEeeUrmzDt2HS6k5UgZBesuUh,33.219151857277055,-117.27986740061588,8c29a474bcd51ff,0.766937255859375,Oceanside,United States
75,11tgovqzRdZXzBfAsTJQvLc2Mzwu16667nkveHfV9Ei9GWmjmoA,21251,zealous-iris-crocodile,14NZZcvUQdQWzfzXS2udaAdksheeC3Skg8xqrQ7F4SgzdG7nGoh,24.77028923277709,121.0554794975946,8c4ba01086289ff,1.0,Zhudong Township,Taiwan
76,112aVYm5eyJgrSuPtMYAnQRFdv5Snfc59VRC6gzmZV9Zp4JxRNRd,20921,,,0,0,,0,fail,fail
77,112ZECiQMKYjKqqXYhs1ALP8p1cSv7KSFytPUNmtF1cdZB7BkxVh,20113,sharp-turquoise-vulture,14SRjiLUs1RcRw6uf7DuBUcvhBAubs3oFuqech1qZ6BJGSTYW9x,26.57238390349638,-81.95488842301437,8c44133b6a015ff,0.398406982421875,Cape Coral,United States
78,119ADwvcPRGRcw7PEaAr8R47gtBspYDUccb5VrvwRoLRFg1rFHt,20098,short-tortilla-cottonmouth,143mN7KHTLpyKhnnZqfS1jmR3CLszorskCJNHVfDSrVPq2dKbyq,26.60893640579227,-82.00059999276722,8c441338490c3ff,0.398406982421875,Cape Coral,United States
79,112Wi9eGeCr1vp4bs9EZZ3493L29sbN54MvoDGmMLxUnDdhodvtm,19925,skinny-ash-dachshund,14316NR4HS3pMDy5zsgcE8FLLW49QvLCa2ok3okhgA6wfmJdW8V,50.08236910880291,19.9743877698841,8c1e2e6a2069bff,0.469482421875,Kraków,Poland
80,112q9MPFLhP5Y1sBFdKHRgwEgFm8EyeKydszqUo6rgmxeCWMSani,19756,spicy-smoke-vulture,13CuAhpUKYMb1A6CXiiHF6KxK2nh33oK1kaT3BzMxJniFDzrG5y,37.98471884786995,23.745687061074257,8c1eda74e898dff,0.5858306884765625,Athina,Greece
81,112EjrJ1MVuYzherHUSxfbE5nHkE7NJBvqGFv27oAvtWM4r9wSBF,18632,zesty-bamboo-viper,14iukpHXca8j3DTUKzPxwqsDHHYXQMW2NNWiMXihghEVXweBn4A,25.033413849488753,-77.3070148125731,8c44b56aa022dff,1.0,Nassau,The Bahamas
82,112ohajhgLdWrtV6DKfxch7AQSy1aNKNFB3S4vRxm5xCjHmmDTjZ,18163,mean-ruby-kestrel,14o89HGgoV8vkjr2hJXLBW9RLFv7YBYoUgx2da1yYgr2epSRi3B,26.596183922138597,-81.98647420919346,8c44133b194bdff,0.398406982421875,Cape Coral,United States
83,11pu6DFf4gBJPGUYEbSDgteX296Xesw985geWqzSy28vct4Labf,18010,savory-mercurial-hawk,14ZwFkCR8hCokiG7a6wCTpi99PWnid4EUowrpH8t3ANKfqyQTEe,30.355115100513824,-90.98232995531701,8c44463694a35ff,1.0,Baton Rouge,United States
84,11sJgnyapBbx9qPDKTqp8CpLevyLNUkQL2YLkpNTUu4S1xFmusB,17541,mysterious-chrome-loris,14bNqAtCteQsfNSDWLnXjS5gkb7eqCKFuWxeTwVw6Us56eD1frQ,44.63515182380267,10.953959314782404,8c1ea6230b2d5ff,1.0,Modena,Italy
85,112wKPvYddwEBsy6rqSVbBc57dABivTG5ZwL7E3FdMuTK6s5xNm8,17370,docile-lace-armadillo,13w6iEyADR7acdMrJkF576T6QCyRz9JQvz1Pm92tCgz6ts2jFkt,44.84578986871912,20.405321248083776,8c1e1b281aea1ff,0.7407379150390625,Beograd,Serbia
86,11RdcvbmzhhJkGjvg48vqu5diDa9pMneJzH7qsVgwdpeutU2c5D,17051,tangy-hazelnut-troll,14RGwp7WdZT47EjpXcWeQpjbMRdPgaWYT9zCsenRxFQggWo48p5,26.551316694204086,-81.97175564969541,8c441305a75d5ff,0.83892822265625,Cape Coral,United States
87,112bMRZTz4RJdHtVq5mKm2GrUJMhTe2vujFrz6jmvq2PaoCGb1PS,17047,melodic-gingerbread-wasp,14dMe18aRortRkebJ4Dwst4GXfE4mai8c7VxEoXF1S3MXCUzKh6,50.40059741191236,30.604527885300726,8c1e63bac69d9ff,1.0,Kyiv,Ukraine
88,112vYwP6VFjYYoAfWzbmJzfKB81qsKG3MLViLesRPcpix34r5ue7,16953,melted-daffodil-capybara,13nwfUQTpHPzvpoah1b5fFhv1fcnLYao4VFsSAHL2dHTnERVeUR,26.611037569970414,-81.98078837406045,8c44133b121adff,0.398406982421875,Cape Coral,United States
89,1129AhTyE4GGRunqEwuQiuS2QgDPmEsaWWYCSaVM4syPpAdkTWDG,16824,puny-oily-turtle,13ynzENvwVbKrgVPJx5j6nETn2uhtrE68c19EGyGDBTPxz35M5b,44.83827868400611,20.416340514704693,8c1e1b28c4213ff,0.9523773193359375,Beograd,Serbia
90,112bZVoTNa4BHYtaLf7kbKa4KNBG1ZfURKEbbTa3USp5SnCV4Xsy,16781,mythical-seafoam-osprey,1431ywDsZfKhaNhi8RJguMRvMbttMkVhFYEdHYrdDZo73wLNNWq,46.4976031557863,11.256511308391016,8c1f8b53102c7ff,1.0,Appiano sulla strada del vino,Italy
91,11CR3HeoUs7tJpzXGNESVhPcxqNSMsBJ9irzzxCrwHYPeHswacZ,16669,energetic-wool-penguin,14iSeLL6DVGJWWN3EBb7LbyAtmu2XZpuFpvQhSoVTr7UTJ1esvB,36.31043202476663,-115.24299833011463,8c2986a8d084bff,0.2932281494140625,Las Vegas,United States
92,11abYMdsvYGeZ2FGohhWd5o6xnTaR6CHPxf7y7orHGQ5KLumAjE,16271,clean-amethyst-cougar,14pcrr8VsGC9kUZhUKA48bA6PeRMjd3ieffhY1wAobHgxJmrG14,37.88334090061514,23.751975038993738,8c1eda671d4a1ff,0.8787384033203125,Glifada,Greece
93,11ScgEsjovcRxTS9KGbLtBn66G2RhGYgRnAVAm145NDwBupGVgE,15852,savory-teal-seal,14SphVV4hRmo88XrFbC1Wk7FFhn9jd5itXTAmqMuAY44yquifLL,41.467088732865534,-87.49898658528126,8c26640882ac5ff,0.5,Saint John,United States
94,112sHgdWfa1RF7unQKdmCRJa44LVkHte9y4Gj2Hvixzwzg45SkSX,15746,damaged-plum-python,14KPmeiCt7DG99iu4CGxdNvrGs2VvYZ4vALH1ZstK2ThEwKYb8v,24.847181243107805,120.96861361703523,8c4ba0125c233ff,1.0,Zhubei City,Taiwan
95,11jH3iPvTo1zPPe8YCcpFSLTCpq7i8Je9PcSQCwJqo8PvaiJVDF,15683,macho-wooden-raccoon,13ZCx984mSb5xk26VfxAVdqZyFrWng7eDv7j6F6kN2xw3uN6HJu,24.914963610494272,121.05264868641119,8c4ba08c02aa5ff,1.0,Yangmei District,Taiwan
96,112bg4XT8y7kiYPPwWXQb9tjy8WmcRhDo8Ew6qUsCqjCvD5ntF9Q,15585,bright-carbon-starling,13Pyq15pSQDwBpXixTKieHY6RujNudYRP5a2tf6eEjneWnPLqmw,24.85342931762654,120.97804792018611,8c4ba012584adff,1.0,Zhubei City,Taiwan
97,112ghFMBNDu1GVRXMTYr3gGrS5hJ5MJwa8SE5usgxUpm5GuyUxLy,15555,upbeat-chambray-jaguar,138guaQXxtnKKu9ZsxQqPkHo4QJHExonVyEaAPoogXWw3Ufxv4f,26.584689995657985,-81.98929952247211,8c44133b53201ff,0.398406982421875,Cape Coral,United States
98,11wZ9cTkuMJP3JC2KDM3D6fW8nfRtV4WbCLDFm1CpqRZyfuuyeZ,15525,mythical-cerulean-caterpillar,13DmTqWz2g6e5q56o9sSsMWupP93TWM6EQemT26LycBmtDTynzx,59.43481373398103,18.05801707860724,8c0886671b9b7ff,0.465545654296875,Roslags Näsby,Sweden
99,11wj1qqCm9vTtSva8vbH4xoqBBu2xNvNds7ezSZrPe5L2n1dfgk,15512,,,0,0,,0,fail,fail
100,111bD2mg3ciV4aR8AFrmJngYAqewPCyYYEYfyqJ9M7MgZwxfbU,15462,,,0,0,,0,fail,fail
101,112GitRFaCkVT4jAzDbFScQC8gkM8RAAPBFLpckKvn1Nfbn5y5kP,15455,skinny-felt-seahorse,13Gp37yTmciM2Tzk4hfTEXurbxio9afNsucE2TDNgUsM5yTQLQT,26.61824725669226,-81.98927713918623,8c441338454b1ff,0.398406982421875,Cape Coral,United States
102,112nNfVyp6WqjG1uCE4QcpodJ9f1Q1DAcVsKyfZ68mE96nTL4HM5,15390,careful-white-iguana,135EK6gvrQ7ZmRhn2sZ23isc6P5eE1Wa32sg2b3dqnxwXiuf45q,46.45710455393706,11.320417149200109,8c1f8b5037b51ff,0.631317138671875,Bolzano,Italy
103,112FJ1kNR3PHcVEppsjhmWkfzJQU7yyfeybHecwictWjcy3e2fQe,15358,zesty-pistachio-narwhal,13ZCx984mSb5xk26VfxAVdqZyFrWng7eDv7j6F6kN2xw3uN6HJu,24.887357094843512,121.03786771100029,8c4ba08d1b493ff,1.0,Hukou Township,Taiwan
104,112tzJtrXeuxFSBxzgbo972LHrQ7wh7QZobUSiwAX2RD5xBFifdE,15057,ancient-sage-griffin,139gyRbRaQgTcfmCpLrUFjiop7gpEJMrgy8mPHv5GQjDpp7sr64,26.611400195059627,-81.96381306152357,8c44133b3af17ff,0.398406982421875,Cape Coral,United States
105,11b9p8v8n8E4xLkaDgUVJEKC4o8GyCKzEjzF3b5gkSoS5DFqLMY,14855,lucky-mocha-armadillo,142U652eip5DsLEAKJ1KdN5ZALHJaH664G23gySW49PVZxvE4Tv,48.78819536590772,2.35234745350359,8c1fb4650ae27ff,0.2830657958984375,Villejuif,France
106,11oyJxDRXHLzSDHd84VE3yUkuMrqM2hfYqPEEPXY9kjnmJQY8T9,14511,jolly-carbon-wombat,13buV4JstjoQGWNu2M5S2zP1jfHFfKc9BcPq4dAy7LzVtU1Fdew,35.36741140540096,24.478848409377235,8c3f72a894b15ff,1.0,Rethymno,Greece
107,11Yjqantu1EAuGLgUr3TwxNMxsF9ZgZZRY1tbnfbNbfud7oSw7U,14488,scrawny-pine-koala,14SphVV4hRmo88XrFbC1Wk7FFhn9jd5itXTAmqMuAY44yquifLL,41.50127689779767,-87.4668218558106,8c26640ab19c1ff,0.5,Schererville,United States
108,112rchiiDKQcpGNWyULzSHnf9Tq2oakxvj1JXYL45D6caxZbxCks,14216,sneaky-caramel-tadpole,14k8GjvueugzfCxqcDjVRpSmyj38nb8HC8BLx3UR28TnvHphXmv,46.450756783136114,11.328985323830416,8c1f8b51dd0b7ff,1.0,Sankt Jakob,Italy
109,11ocQQ5QL17qvKhHGU499Cw9PyT8gprkRjdK9RGcnSGx3EcqKvP,14192,,,0,0,,0,fail,fail
110,11rKqvXc3DSd7aEUpCPuD2Vs7KhznuvhVyctw2pBGWpvDCRnRJN,14160,joyous-cobalt-ape,145YJ91cSgfjzjnVkTR3BrQkeVXbReYdDxRHfw8sDxE6h259faE,33.948695478424675,-116.47956646492256,8c29a05b2522dff,0.4166717529296875,Desert Hot Springs,United States
111,11Kh6zbR5KwevXFnMiE8Ma5GekrHgceBmFZk9cS3HAbkzuxBTgV,14069,breezy-merlot-caribou,14SRjiLUs1RcRw6uf7DuBUcvhBAubs3oFuqech1qZ6BJGSTYW9x,26.59171724508907,-81.98373342792436,8c44133b19319ff,0.398406982421875,Cape Coral,United States
112,112Z2Z9UvDESgx6Bg2ZVbonWuHFinbp2XGRLANLCdoXyc3uTEEih,13941,huge-dijon-gazelle,13PDP2krdURT2gNe2J6RM2FAojkGPdXzouc1Qo88MtFfeUjWXvr,36.142463029012326,-115.28909771073027,8c2986a30cad7ff,0.248382568359375,Las Vegas,United States
113,112ddA6V8RGY6QHhjGJDaZCV1HfmzxqmKEiWEWH2vZ2RmtPFeWXS,13862,tiny-satin-swift,13Srxyw5KDhHnPi5T9MocWJAovo9aypMcM92qHscfNary2PSmCY,26.605918508668452,-81.98613258356283,8c44133b1ac43ff,0.398406982421875,Cape Coral,United States
114,112phVuiFVMrzAAUUB3V7jzs71dhXeLC9toJUKsspHb3FYpmrFr9,13862,passive-coal-jaguar,1431ywDsZfKhaNhi8RJguMRvMbttMkVhFYEdHYrdDZo73wLNNWq,46.49967286527059,11.324159969039377,8c1f8b5050eb1ff,0.757568359375,Bozen,Italy
115,112dcHoH3L5vvKzbQrvTYgQpXPGx3M7ok9npDfu1aZLVPBsDFU3B,13779,warm-velvet-bird,139vJUWbSr34zsg32nUYEU7E3JdWF9HajVnFH6du3xMiSYw9MkR,50.06155625781143,19.97097772774554,8c1e2e6845227ff,0.469482421875,Kraków,Poland
116,11taDH6aT9xqEAYB13GhARNWBNStCHhgi8ga41KBRJckGaBpP2J,13659,faint-iron-bull,14nxY6Tw4WaHqGvUShbbuqZpuBjWy5GtEVBDPqXMdU2QRPnvXWy,26.61949698134922,-81.97005135968038,8c4413386c5e3ff,0.398406982421875,Cape Coral,United States
117,11cwnrdMvwTJNPRG5M1r93JJESj8Yu7pJnoqTZRd16ppq1AEP5P,13482,tall-inky-elk,141MEuaQzWuXtyyFHtQgHpyar8TM7wpovEJcwtPSNwP1ExfCq3n,50.635256625995474,3.0331112973678214,8c194d66d22cbff,1.0,Lille,France
118,11nKqtHkdMDECxfjfKWBnvM9AT17ED1D9XxV1Q1FBMESurqTWN5,13412,lone-vermilion-marmot,14UsYaENZdmhvqcMWPLJrvBnJ4HyR6PaGDMsummLLad3qrgQETQ,47.394553929214894,8.541977125794396,8c1f8edb3270bff,0.301971435546875,Zürich,Switzerland
119,11hkDFJVNJZQLHwsXmJUtj3NpXAt8inrZ5gPZiapm7Ks5jTm2Fy,13385,modern-felt-flamingo,13sgqx79o2w5hBPXvkVbfPdkFepLJccAzVMM7W3C8qH9n5rMd18,33.98605147803718,-118.22339443786726,8c29a56de1487ff,0.3130645751953125,Huntington Park,United States
120,112a38zmeYiyCYnMgEXAsKCgYUZMgQQiZ5h9odoxiCKWwUEnEcc6,13200,active-satin-woodpecker,13td64uej4YN4ChAagT6hJYHuzVTrXbekprCdKo7DA4CXzu1Bk4,26.60590470845028,-81.99268737157104,8c44133a268b9ff,0.398406982421875,Cape Coral,United States
121,11QVeYckasapcrmqjZqtfGTjE154uHHUvYPPwW6EMwzrpsdr213,13197,jolly-blood-condor,13zjsrN7BAom45N7DXornx7htbMgJwa6azn4G6UcesgASrsTomv,37.378055531828636,-122.03360384577316,8c2834708958dff,0.1517181396484375,Sunnyvale,United States
122,11HpHx7ckqqGr19pFRZPMZ214jBbDDgME7vbdcti6S9r43hEEKQ,13089,creamy-coal-millipede,13DQMiGZm9wKvnYsW12hyx55jRcehXJR14PZHL43fphRWfCEeZE,26.603053311813117,-81.933577976584,8c44133b26d39ff,0.398406982421875,Cape Coral,United States
123,11EameTg2n6JcHGUKZqKVCybACJwpcuKjAWx6k9jkHBgKgxp6ns,13004,zealous-gauze-dinosaur,14HAuvXJppcT7oBsGxxyCEgL8RCGtL6pBmozfMKas9A99Hc4LcJ,26.610117545492447,-81.95106383083214,8c44133b346a9ff,0.398406982421875,Cape Coral,United States
124,11ir7yu2EC8H4WoyzsGmqgAxHKjAbB4PgZvWCNr8mzmLb9qJ2jF,12973,proud-mustard-weasel,135EK6gvrQ7ZmRhn2sZ23isc6P5eE1Wa32sg2b3dqnxwXiuf45q,46.472275429301604,11.334834246502757,8c1f8b503b583ff,0.631317138671875,Bozen,Italy
125,11agShpFWjiC9PANs4k6KRKMsb27u5BfXcaz1z9mRhnLdyhxyTA,12841,quaint-citron-lizard,14HZ9RG3CfZhbZVz4hcjDbBEUyjsJ66v15Ls7PCTYJqnDjje4qJ,48.827641527675404,2.3610285808473255,8c1fb46468831ff,0.2264556884765625,Paris,France
126,112BqfNEGTRHap9yTTJX9K18z7Vq7u9gfkQPFZbCHFg5cCcm5dMK,12815,bent-pearl-snake,14gD9D4VtMp4QnaC3PDfzsB5MXNLi1zBK14mv32itXcMfDebvgy,22.692415694857985,114.09168717037743,8c411c0638b23ff,1.0,Shenzhen Shi,China
127,112k1T7hy2w2hZAspVqKY4oArsvvqJBt2szSYoMpw93iChYgeU9k,12764,,,0,0,,0,fail,fail
128,11Ktk8D36EE4Z1wut6XJ4GgTjvCeQteCZnRaTUdetVTwidyjqUX,12680,,,0,0,,0,fail,fail
129,112pGoWYdqVod35tNAWGkHjM6wiV9tkBMAPTAU5mYcVKaLbbPCwj,12658,festive-gunmetal-albatross,141BecBRtf5QEoA6EJQEJhMXUsMxAkrkA6gWqKh1t7M46kC53po,24.873189130264322,120.9897792298994,8c4ba08d6a235ff,1.0,Xinfeng Township,Taiwan
130,1121rcYpvNyXxSS9tAWJh6yivvp2YamgZ39rcY9rSfXPSgjzC7JZ,12654,cheesy-citron-cheetah,13oohWJkxXddFu2634iZHwpHBGFhj6btY6XjQDEjiVbrxVBY16G,24.825509391970282,121.01994973236404,8c4ba0128c245ff,0.7142791748046875,Zhubei City,Taiwan
131,11hu7dj24QG3xVSBNS7TfHLv2wvha5hvkbcuXgU96QgtX2VcA1M,12649,formal-ebony-osprey,14NLUJfff9cLxd4aXfkBDBABnKaiVi3ZdZyqbRAT3bUFAUGhcdc,26.67483697268394,-82.05401369527542,8c4413236ce2dff,1.0,Cape Coral,United States
132,11eh7bg25XnGRfm3kDtB9MzuCgFvgKMuEYpKVPCHAh1vfuTh4b7,12607,alert-carbon-penguin,14Gn4JTQsKUWGWD6VG5UYya2uyzvGtp6zMPp9dYdskMj7kTdDXJ,50.66501095419804,3.044511334879882,8c194d2938d5dff,1.0,Marquette-lez-Lille,France
133,112om463TkKWf8yt8Hiod2xY48aPozP3nsSBZsxZuBfCqMha2miJ,12426,passive-pewter-haddock,13hPF1QNVaqS5sRHBecZKf7BB8UDEpg5krRMfycAg6wDW8cNz1C,33.975961143286135,-118.225614882133,8c29a56de944dff,0.1564483642578125,Huntington Park,United States
134,11zvQW3xWc7GEk1oiZRa9hu6XsX6vUHy2eJuh6zEBfS5JaZxAKB,12420,quiet-oily-ladybug,13pXNJvESrFVKrWP8KzXJrE1a1ncA5S5DaZa2z7i3H8mrcC13vL,32.8143827790458,-117.26225149026385,8c29a40050709ff,0.4742584228515625,San Diego,United States
135,112QQ7kH8YR3AQkoRcHT8eyT7tR4rdXMtvcDrr2tVQzhfmCj6kmU,12397,flat-peach-carp,14Tjbri93ZDy2qfGR8q3pxeJx8ckBPvLhgw29MLPywkNhC7bjkj,59.40165578130942,17.946758198734532,8c088662d3113ff,0.271453857421875,Kista,Sweden
136,1149nU36jGtUF1rxSAiELBzDicke51Ho74rSuCa6qe1ekNHKkrv,12315,witty-slate-kitten,13utX9xVP6UhaDzCeAXQ2ri4JwaCWkKFuo4YNBX39bopWYNBNsy,32.74724231195488,-96.8409519282488,8c26cb9a3760bff,0.5,Dallas,United States
137,112N7z5XUsLfcbH4SZFrxkrK23K6CG6ohiXaXfFLU7zTtUPAeGqS,12278,clumsy-carmine-opossum,14YLUP2yTpCdHjGFNvXu3RGZAgTRecUMfu4eVJqkMZd9gr7W6Vx,26.61832506213188,-81.94777082346691,8c4413395d225ff,0.398406982421875,Cape Coral,United States
138,11cQEk9WvUgMYp3WAARUpri3DFPpTBucFYtf61G8GdwEhox3cW4,12125,overt-cyan-newt,14mHNup5a7Nrbn8rBiMxk2FJvBFQMiyDvbyjgb1gxnDUqM76rA1,46.44045009312406,11.34609088186841,8c1f8b51d6291ff,1.0,Laives,Italy
139,11wQFgFcTG5XovbM5iDJViLi7RNQJWZj8RTZDb8GyWaqNeHifp5,12090,harsh-satin-ram,13PbgyM2gypCPnvAP8N7XQG1cCVBk1R9xBoXAJbG5gRpaZmnJfy,43.48581181148569,-79.71854207292112,8c2b9b555b995ff,0.2100067138671875,Oakville,Canada
140,112NqJoxPG9XeAN8WeLx3Gjn3NjRcHijoywvNSDDgTaYP2YhSnTu,11959,slow-black-hyena,13e354o3Gx1rzb9jwrG6WUsdH9oAVdjVTJM5RU1TquUvtGZ6vzJ,24.862629507152853,120.98936836571836,8c4ba08d676adff,1.0,Xinfeng Township,Taiwan
141,11xwNZsDNGQCRT29UT1MGYuwddctV9iDvFtbkLW6uD22X9FKgy1,11867,breezy-sage-dolphin,133FjFgNABrwXaetcAAGa7kBVCs9Jza2wbohLWnTmRt88n7Mkpj,45.60958872697649,19.536035849530297,8c1e1864aa725ff,0.5,Kula,Serbia
142,112h2ytQiHXx29QWdPsFH1dypf8iGkccnkurv3fnf6xXCqPYtMr8,11783,harsh-saffron-jaguar,13yHZPr2CJmTkfssLNB7CZXemcw1EhXrT2ocuLNR4bbcrizRLVa,48.81789547592488,2.3586471077547144,8c1fb464642e5ff,0.2830657958984375,Paris,France
143,11TRRhoAqiEMr9fvsmTnMgcxjFNUMFSZX5eqW4ZTmEN62WALnYF,11696,oblong-lace-antelope,13nM1zodX6TiuYMkABjHt3tA6pSanudca73hxBiUy7mauXBiW22,48.89128493805709,2.4661663408286065,8c1fb466db043ff,0.2830657958984375,Noisy-le-Sec,France
144,11212tmvxMFse1Qi4A9n1E5zVqp3BzprJ7dQJy4KG1EYcaxQ7kur,11597,precise-indigo-lobster,13KNsdi9rE5MsbgxnwgqoaSB5FKNET8L5vmSZLQmHLTKj8mrL1j,26.541596301214817,-81.99951819895229,8c4413058336bff,0.83892822265625,Cape Coral,United States
145,11kJ3ywHjbtVtkgyvAJfiXGUb6sCpxBYkjgxhLx3VcBt7u41yv3,11403,fantastic-chiffon-worm,13SHYpyCK79Yh33TXKyTmN1AETR5V9CnLXVWbP3hNr8UZcEwjre,25.5646714961833,-80.45518127572385,8c44a195c2f11ff,0.7055511474609375,Goulds,United States
146,13Bgs1LzFzVsLAYpS5By2Acmr57eroLkQEr5J9YbV4RJxR7YpCp,11397,slow-satin-deer,13Nuu4NUiDRftsvGM7ykJP6USuP8svN9AYgqYDZB2opU9uy52WQ,0,0,,,,
147,11225o5JtfrV4soroTBAhgUdtetiAueCRgY579RrjFFBT4MEpQ9o,11391,,,0,0,,0,fail,fail
148,112ijEAjjZxmByyCjHLFTfU1Lw68DPjGCftD7rUc3hEcv5eUdnvR,11372,ripe-crepe-huskie,14t8ACfXzAEHMBtAMmPjrxCJmpKn3htuB5p7QCZHfZuhBgCJUBA,24.839396766665676,121.02344711862942,8c4ba012c353dff,1.0,Zhubei City,Taiwan
149,11WQs1vRnoQ9dY6oa8zxGkGVXpS18MS54m2YCFnTfQjMHxZqXyJ,11333,stale-rosewood-oyster,14CHjvNCyqTN66exSg4HHoHXavt3saV6QcL1CFMTDvidFtr4jwX,47.902967362286574,1.8669547183014077,8c1fb666ac64dff,1.0,Saint-Jean-de-la-Ruelle,France
150,11212BimM4WQytWK7PiVecDv1mhJAj3cGCF61ojfY77KR88JRFXP,11227,blunt-paisley-beetle,13jCBT1sDNX7T1X7nV9mSHxdqxt3cRQcMEoMnZCkjHr58XX3Z16,50.65942926083325,3.081872126366376,8c194d291a0e5ff,1.0,Marcq-en-Barœul,France
151,11a2F93k2y4V1VFTG8TkZBzQCoHvKMjkG4xtS5vgDYSnKZCEBid,11186,crazy-misty-cow,14SRjiLUs1RcRw6uf7DuBUcvhBAubs3oFuqech1qZ6BJGSTYW9x,26.626757463163212,-81.94341322472579,8c441339550c5ff,0.398406982421875,Cape Coral,United States
152,112SCCyLQQbtJiaxYQK63M4Fy3qsRHyoTcLmRMEWGU9ydFM3Lnss,11183,witty-orange-quail,14bbgQRcfBErv7fT8Db7Qak2oTPXYhYBDT8ArVHhn1CufmHjGe5,38.84024981017918,-76.73525394158486,8c2aa80d21713ff,1.0,Upper Marlboro,United States
153,112VinUQc2fp1Kz6uk9GNTrdx36BjspL9t7ZHtv1i8xhLCSLEYtx,11082,,,0,0,,0,fail,fail
154,112W68zrvVaHZzgoUZmgkvyS6PDjnPF6byAEY6XUYtwne4zexDNe,10935,kind-fleece-locust,13fDj23or2F3m2FQZQmog1VUSkQmouwiP3QHcQxipeS4BziHh42,26.507705199020222,-81.91281889471146,8c44130e3aeb1ff,0.83892822265625,Fort Myers,United States
155,112Jcsfdev8Hh8WQ7uywgggkEz2WgxdMq3d4jtuUuB9avtn7Ki87,10934,sharp-satin-python,13DsREppukkZHXZvVLaagZMtgSw3Pb1eN3gqN5qghQedk1WqMyj,43.25421973900592,-70.85366200989583,8c2a30d13b489ff,0.7142791748046875,Somersworth,United States
156,11AhGwSgLMxGfq7J6t7dbSha52EUhaN5CSrZ2RV21Jdiw2bA6BP,10914,mythical-blonde-lynx,13tkfRZuW2mov1LrChwU8sbLa6ppdCT16fqEh1qjBQ2qVeaLWi2,44.83824317213496,20.407946408071904,8c1e1b2812ed5ff,0.59259033203125,Beograd,Serbia
157,117EtDfZaVbaK23LEQBewvjGgwgUi8P3fyb4y3gXeXNb2hGgSdd,10881,muscular-hazelnut-parrot,13aJ7dWqMAk1wNxLa76XhWesPcsVFEDbCJu9e88VXmHy9N1TXV4,48.78546081995223,2.3521526484085267,8c1fb465032a9ff,0.2830657958984375,Villejuif,France
158,112n3pe3NiH69J6tVN2SLDbgPGZeA32GwxhDMUTeca3hVgDCJpmb,10608,fast-turquoise-griffin,13CGLj65thgc3Zv7Eyv985AP9fvz3JRvSfx5mZ47bpkU7v66cu4,41.349764570682666,-72.10492194996061,8c2a336caa2e7ff,0.3787841796875,New London,United States
159,11aiGpagSk6egCrPSPjSzhLtbVgpXYNvs7qi4CN7do2nZgxzqSm,10603,basic-coconut-ram,14WzosYz2kRPRig4ZXmDMyhpuGq4AtdBUUY7ztuHnyPSnjJLmPU,42.02620375636029,-88.1713658621825,8c27592328695ff,0.5574951171875,Streamwood,United States
160,11cy7uGmsd57dy3sEAW3f392nn2WoH8gRXE1kZSKwFEkC6Me7TJ,10546,sneaky-seafoam-wren,14SRjiLUs1RcRw6uf7DuBUcvhBAubs3oFuqech1qZ6BJGSTYW9x,26.614227845923992,-81.9282387929314,8c441339455b5ff,0.398406982421875,Cape Coral,United States
161,112vqgitbpSJ2LAuRmenza5kxt999sM3zFcjjjSDcoYaq69fxzE6,10502,swift-boysenberry-salmon,14ji81YoMPEwS7mEYRyyTmjJKVj4L2bEdYbn7AKcBtkshHhqqyJ,20.81140416870501,-156.6114685132617,8c5d1686bb2a9ff,1.0,Lahaina,United States
162,112mtfWC9GtbD1vC5F6sophgCjc8nJqwnpYCVXNgje5TeeEqXAvg,10485,sticky-lace-seahorse,13sFYqBrx778ZuZ6jGQnPm9b9eftH8C4eHtMU84iUJbgqURjEAk,26.591183076414346,-81.95756622292753,8c44133b0711bff,0.398406982421875,Cape Coral,United States
163,11bRUEafYSVGDqeTDRGpvde4rUiuoeaeWpMVwjP1byXsbYGQYZc,10461,amateur-felt-falcon,14RAL1xLkpWQBPJFB5ojZAWCV8Lg1DqsTuBoCXEFb838RGUXkx3,33.95030199774322,-116.50342749068014,8c29a05b2a715ff,0.8333282470703125,Desert Hot Springs,United States
164,112Rcw6uw5k8hCRFjNSwUF2aWM4Dn8QVw2AuYmwoQsFnK7fQJqwY,10455,dapper-sage-cheetah,14SMfqcvJVuvsqLSLMte8NX2oUs2aUBTWrNYgVFgxrkW9sm5pw8,26.639950452942404,-81.94177262192778,8c4413391d313ff,0.398406982421875,Cape Coral,United States
165,112Npm7y8tRPsauhoLYXa6QmWuwHDbJqAPDrYRzUrE6Xbbu2FeFQ,10410,,,0,0,,0,fail,fail
166,11CT7gv4oVXxH8ZEUYM82BHFDpJJxovYjx7AhPrectK4Xp9TMTt,10203,wild-umber-carp,14bVCjrvFqz8HyxC78WDRzm24xV7BQWU8dGa1tYZ2anP6QjTjq6,20.816960914343852,-156.60924336721385,8c5d168694287ff,1.0,Lahaina,United States
167,112AMGhACru1bn4ZfXojjiMjV3Zodssy4FeMb2Gmjc9rVVXcW9ms,10168,bald-vermilion-peacock,141wQUhBkw7BgkMhVn2MnFAHjq1Yap1Zbrv9KyKfRV3Si9Ux78v,48.750083949419,2.342003155853029,8c1fb46ecc713ff,0.2837677001953125,Rungis,France
168,11E3C9TGTyrxguwnYjU4szzUhziM7vHgy9xfecWrvEZW17sCHMb,10157,curved-cyan-dove,13ezT6ckR1Ktmzm85k6s8Jb9ArrVnYB2NxDgKkaeKuam9FUiys7,23.19839531376219,113.59912895181422,8c411882b5035ff,1.0,Guang Zhou Shi,China
169,13dGkgruYudkktHYgHrGZ6wCFVw8wyXu23zDLmKwquZg8tMfNay,10150,,,0,0,,0,fail,fail
170,112mX63fUecqexEprdHMFqWHYcUZqdm4qS5iVW36RydT8XNkmNTV,10098,attractive-pebble-coyote,14PaFNTtEdqxixDv85UrZwoV14Tnqtmj3ZcgEdeFnDbpdcG86PD,40.672999632194625,-74.40449038188345,8c2a12b69b729ff,1.0,Berkeley Heights,United States
171,112U7E3LL8TXwpkvSbGn8s93Zpv8xirYzQkb8yekH2yJp5NJWJw8,10026,generous-misty-guppy,14HWtDitC6mFNAwB2z1xpZh4t8t1JbiXfkQymZ6SBppVAL3Lkev,46.51358552009409,11.233092249876353,8c1f8b5351809ff,1.0,Andriano,Italy
172,11uGnNPusvkjTMmq8H3dQYcXkhkWCznC9KCqofYKeGn5Mi5eGzE,9934,skinny-tangelo-barracuda,13VkM74gQSC5UqPibeciN4huQBfrdz2BGXhjTnBC8YViRCyNRRx,48.88260291422376,2.4324931311738345,8c1fb466c02d7ff,0.2830657958984375,Romainville,France
173,1125TP9Ukft51xqtBUrXq4tbGL6sz9wnVAmydeqV8cTykFYmCFbT,9872,upbeat-marmalade-panda,14eYVCM38FEtEeCixj2kE75Lb9MaJQxxBjrbu7uS2Zrj9jWWdJT,33.94991261399524,-118.30515490465065,8c29a56c1a5dbff,0.15814208984375,Los Angeles,United States
174,1127YWTLotgTAxBUW8YawFpsU4TwunaQaYa5YgFfaqhCZce7LCF,9814,rhythmic-indigo-sparrow,14bbgQRcfBErv7fT8Db7Qak2oTPXYhYBDT8ArVHhn1CufmHjGe5,38.838063031815174,-76.72549323086228,8c2aa80d2b559ff,1.0,Upper Marlboro,United States
175,11isHGTRYqzm3pq4vduqpZetpR5UqGhGZPSY7wkm5F3X3gmaixM,9623,acidic-wintergreen-lion,14ASBNhV7iCjUA1SXcqMeRPp36EphqGUFuzJZMBWtgVtz9S2R2N,55.764701176594116,13.026717182469246,8c1f2e49888bdff,1.0,Kävlinge V,Sweden
176,112484di1yiDYX4VseZ5NxQ9VWDXNiad8FwWVphWkAU1gTGTvx1E,9612,muscular-sand-kookaburra,1431ywDsZfKhaNhi8RJguMRvMbttMkVhFYEdHYrdDZo73wLNNWq,46.500136543629736,11.350188938615402,8c1f8b52a09e3ff,0.8333282470703125,Bozen,Italy
177,112jNi6nmE1SLQPATFi4f8Riu5YBRpC8JcDSr5tyt77CmkWYssrX,9606,rhythmic-cerulean-porcupine,13WKTfezZjRR41m1SwvTiiD4ThFPP3yuMgJ4Ya7EoSTT9d2NzJM,45.26339760502672,19.857830038162216,8c1e1b12a32b3ff,0.5988006591796875,Novi Sad,Serbia
178,11PfqNa7XXnBGQvnCnW7bRrw7qq7B6c6yE3wDgPeQRAvSwRnJxE,9574,curly-watermelon-camel,14LM6mGSsbtnFUhowog3qamNTgE2c5k59XPfzPMsAM3A8uNKfAN,59.42754836838309,17.947415330011516,8c088675872dbff,0.2327728271484375,Tureberg,Sweden
179,11YSuMy2voN7xtmCkTTuqfRGDs98BXLBysgv3q46Cv3wusU33LG,9536,large-pastel-sloth,13rEz53ne6i1tZgesKwQJzMW2tg6apT2d5QVNgonRS5TZgm6vif,48.77617268985231,2.3503970203656785,8c1fb4650651bff,0.2830657958984375,L'Haÿ-les-Roses,France
180,1127FSqgEE9dWTbXRQZyDNsrQx5K6d2Joam31rKfLqPJqCJDs61S,9532,original-cloth-eagle,13gZq6HmL3sB6mZgMy3krKXaYGbRmERnDZcL7Yzkz9ynRDkmmDN,50.065952761973925,19.95732419001892,8c1e2e6b1a815ff,0.469482421875,Kraków,Poland
181,112d8bVwXdLm1xXAHUoaPAgAnQUngrUwJ7RU5cXSSr3XrYA6MuYu,9530,narrow-vanilla-goose,13dvZgbSxuUbXxHkfkm63UyiRnjwZJ6R5bSnZs9rVnKkTGcq5Qa,39.419309923802196,-0.47652019694221154,8c39540b10a49ff,0.537628173828125,Torrent,Spain
182,11Sju4uRjV7kaxWUrMABxzctmCEhqR7FrtRcfi7EC9E1TcvboLj,9526,acidic-sepia-bat,13PouvRLVUHBF5uy85KmPLFKYnVJXsNmb3YepfT49ce2XiQYmVn,43.85246122114151,-79.33931597400611,8c2b9bd2b28e7ff,0.10870361328125,Markham,Canada
183,112Ytg3dJeyVekyQXjURxtyc7ZLW8Fw63mPX1gjmEVfaevQqX4wX,9521,cheery-fiery-ostrich,14jjcjfvhUjvFdKhp5bfiHwbJuwBFKwPw2P49V3rNhmc4mjiGHv,26.603538241582573,-81.94541946035248,8c44133b225a9ff,0.398406982421875,Cape Coral,United States
184,112DEMq6eEGgf6NYgHY2m5BYXvwutXa8roYWwA6hZpnbae4ETRpd,9405,wild-menthol-gerbil,14Tjbri93ZDy2qfGR8q3pxeJx8ckBPvLhgw29MLPywkNhC7bjkj,59.33037369037921,18.055533728139757,8c088661c240dff,0.1197967529296875,Norrmalm,Sweden
185,115JSPyNgERt1xtWw4g8inABYzQgksbaFHpMwj7rabtRZ2pHJA6,9372,macho-velvet-mule,13CuAhpUKYMb1A6CXiiHF6KxK2nh33oK1kaT3BzMxJniFDzrG5y,37.9779254436378,23.745353940586615,8c1eda74e0b45ff,0.468658447265625,Athina,Greece
186,118R2d227aV8iEQaEa2XJ268hSBZZCpACtz9Hw6dpW8RC4GyH9s,9361,jovial-neon-raccoon,14KAxjZk9DxoaUuRnLvXMF3hiZ1XxYcqcaJYHwn5jsvhQWe4JbA,33.94968457082708,-118.18462246957053,8c29a56d0c8b7ff,0.3154144287109375,South Gate,United States
187,112wa4Ej7vxPYsQ4iAX9GEh1wSCsD3FrWECCATy6bsHGUHA7AcL3,9322,sunny-syrup-donkey,138guaQXxtnKKu9ZsxQqPkHo4QJHExonVyEaAPoogXWw3Ufxv4f,26.56478455741533,-81.99010034067061,8c441305b3947ff,0.64532470703125,Cape Coral,United States
188,11cFLk6cYad8XTLow11UWWsgsQS7r2i4cswaU7ZZ2ma8BK6939n,9301,,,0,0,,0,fail,fail
189,11K3hmuxpEHGnhr89vY7GBgNbdyhmncBpSTY1aVvWxdbqvoPdag,9260,winning-tan-seal,142sGA8eQSzV7gwBsfKa9n8A8pEvquEBm9d1Yc4utoseTXL4yjf,45.2711629206768,19.831710374582503,8c1e1b12e68c1ff,0.5988006591796875,Novi Sad,Serbia
190,112QokXpkJ9gmydBjGBkfsSDmd4z2vtnkyZKRHhkuSmGWyNkWUd7,9254,zealous-teal-dinosaur,14on8voUBbcsTcQtnsx34PVpC56zPRzY721HLXHEgBZzEAvsePx,46.47675922310439,11.265329060988423,8c1f8b5065751ff,0.757568359375,Eppan an der Weinstraße.,Italy
191,11hvufH8Aw728gAmLVEvGX25oL9B6dkfcnXTkZ6MSYgQuTAWgTe,9236,dry-parchment-shell,14m2evLRk6J2fjkzLdQiP1kz1KYLJLoVLsbrKqke8mnD13tGnTY,33.98054960185358,-118.22400136521382,8c29a56de8523ff,0.3128814697265625,Huntington Park,United States
192,11rgvsar4ptHQEzhZcJ7fSWpT6NqMX69J1i5JTYWRyhihXnM9ko,9224,quick-dijon-mole,12xsFNMyzu17aRZ5FwRg3bgAPVLUEbga8wwTHo8TsGUqN5tSYwB,59.91290284789773,10.79224072665991,8c09993827993ff,0.3575439453125,Gamle Oslo,Norway
193,11Gn9dMLifR3M4N5DqiCViu94crB4uNcjywPhtWQwJpE5z93kgB,9202,virtual-sapphire-falcon,13qQVw4upaKS8sTo1jwDwQ31SNfiMY21BL1wRde8yyKBAKhJy4y,44.81829980225016,20.489177935517603,8c1e1b2892ebbff,0.9523773193359375,Beograd,Serbia
194,112eDfhbz3pSBVQPtytdRNVNXfmJ97sfypufTzf8s4bsw6aBSd5V,9173,,,0,0,,0,fail,fail
195,112GfhTyax7xGwgZf6p45ZQh2u3KnwQZKmEj5JfKcZVwDYE6QkbM,9128,sneaky-macaroon-carp,14g7JxPyS2jnCqjihZokaiRaQTh5teP1ZDnza4iJ4kST9c3aLSG,24.032989872229486,120.69827378460451,8c4ba28503197ff,1.0,Wufeng District,Taiwan
196,119pyKfipuCDvRoFe8MjGKSqWVgDUTzcTA9D6Ces2gpi8ggoifr,9067,decent-fiery-boa,14YL5sYr9gXsRHBtj5gidsRDi6MY5hS5Uega32gfNs65XsPjRzc,26.601347297629758,-81.84320749680361,8c44130dbaa31ff,0.83892822265625,Fort Myers,United States
197,11p7rrydHWfKcw6ePD7jN7xKNZLgJpRcDzo7TNn49ZNwkTHXqdd,9043,electric-mossy-meerkat,14tLEvoBAB6BF1t5rMWVUaQV3Pj6B54wRBuFKFCcZ9mg58YRzcJ,13.834138000608295,100.58472692185234,8c64a4bb5781dff,0.883392333984375,Khwaeng Sena Nikhom,Thailand
198,114u3tCyuCLmN5EAE8UKDvUUhD2WyxB4KWzV2v4dgustaejg3fz,8994,jovial-clear-wasp,14SMfqcvJVuvsqLSLMte8NX2oUs2aUBTWrNYgVFgxrkW9sm5pw8,26.672204921123672,-81.94008078367067,8c441339e02ebff,0.398406982421875,Cape Coral,United States
199,112nVoAbSzu78QBnvurfZQ5s3ZKAoGXs9hgPShdDAcpw8AdS1rk,8985,,,0,0,,0,fail,fail
200,112kKj4TEuENuhsLi1AZ2XtXuR3eRKrt9aAN9Agkvhm3fCETSdVp,8967,,,0,0,,0,fail,fail
201,112Jda7DoYGiXvE8t1QU8CAzoNZkXdvh8Dv5ot5HkJBnCrFf8Jrn,8888,slow-blue-salamander,14UNbycdqtx3ZKiiMDZJfpHFriyCHwN8WrhcVha8kPy4ztE9mfp,33.97615078192468,-118.13862294740508,8c29a1d21cdb1ff,0.3180694580078125,Commerce,United States
202,112ur7RhmvB6AfDG5q9pCM3yCcY5NutqxnrTAikfbYimiugY7oF3,8865,festive-indigo-oyster,13vrayL5rVTuqpCJ6YuCiqU3HxdZYEH55rjWXhf46DvZkikp69J,26.62955052123104,-81.99931337246427,8c44133855b5dff,0.398406982421875,Cape Coral,United States
203,112wjbCfJfoQq7PzNdKwxwSU5biXtCwCvpGAj7BG7j7syvzvCmiH,8760,muscular-infrared-dinosaur,13buV4JstjoQGWNu2M5S2zP1jfHFfKc9BcPq4dAy7LzVtU1Fdew,35.37032666145126,24.46943633955288,8c3f72a882805ff,1.0,Rethymno,Greece
204,112fEFj5TaZwKRkYoT2yqqGLCQ9VYtnmnGhc4CKbACinsHVrwGPZ,8633,smooth-lemon-grasshopper,13gheiG8fizUbBNWbWkfrr6aiV8hKRTEK9cQjAEiWj1NPjRNLBS,26.585679034063443,-81.87416677498577,8c44130ca52bdff,0.34954833984375,Fort Myers,United States
205,1123NC3Qz8pSMbUEgmjrMUuMrjhuBvwyDWBmKh1n9KXDhucZHram,8610,wonderful-tiger-frog,13d9aW2y1yoRvdNfvPWkAbFvQs2hHmpmCkvY95SpLywDSpVFXE9,24.86457398922619,120.97373345655944,8c4ba08d6d995ff,1.0,Zhubei City,Taiwan
206,11VCTP8qn552WWpxJN6FQJv54q8nKZzmWp7EVKSWXGg5XWdboRv,8608,,,0,0,,0,fail,fail
207,11m1iQG5MnXgWj1Cd4BeqgdGLTcpLsYAPL1MPuDbkbLpNZM9Nje,8580,mythical-tortilla-hawk,14gm5grwHv2tPtAUYbt6FS64EEB4d1XHHB4JgaJLoUvRYFR3JEb,32.882048112361744,-117.2334973273644,8c29a401d60ebff,0.6046905517578125,San Diego,United States
208,11dmc1DtPymWG4BdS8bbRt9XmVQ5unpwAXcsHVeHBiaTJWrKdWz,8556,,,0,0,,0,fail,fail
209,11yjSEoETiV26qXR9SZQZSXZ5fPGbZMj66L13NyEAGkNPVgvDr5,8552,mini-sky-dove,14316NR4HS3pMDy5zsgcE8FLLW49QvLCa2ok3okhgA6wfmJdW8V,50.07880464129444,19.973808907567587,8c1e2e6a23867ff,0.469482421875,Kraków,Poland
210,118sevskrDFueAwbTEvmSdsiLB9vDCQpDPhjHeqzXpA5uRTxZje,8495,wonderful-gunmetal-buffalo,13NJfPJFmqLrhuiLxHYonEsFYrX5jX9gdkkV5PBscdzmatqUeyZ,39.977183761649826,116.36864602937946,8c31aa5090695ff,1.0,Haidian Qu,China
211,1121tCi8ePXwRhdEHNzzJpy9pPCBekTPD2rVVW6TRvd1dHQR975W,8450,hot-lead-seahorse,1332k39Ly8WEibbq6gkgde9PiH7C1EaT7uuUib6f4yDPk6B3HwS,34.00526847300197,-118.23944687982444,8c29a56d86315ff,0.3154144287109375,Los Angeles,United States
212,112RVZQ89ecbEbBdKa4cTvs7qkXD9eU26cdAPJ39fgTzLsCtQw6i,8363,rare-arctic-kookaburra,1431ywDsZfKhaNhi8RJguMRvMbttMkVhFYEdHYrdDZo73wLNNWq,46.4997045236812,11.247331212959468,8c1f8b531c661ff,1.0,Eppan an der Weinstraße,Italy
213,11PQ8w2a7ZH6tJUzfttUt9ERnMvEjBWg7utf56R28Fdn5NRvRXN,8294,quaint-charcoal-porpoise,14Zx2UiwR9igGboQy7MGWbKn8u1JLmR1Fcu8fBRUyEBRYKRWceP,45.573631840646,5.915067890634184,8c1f916e21161ff,1.0,Chambéry,France
214,112J1t5UXXJZqLesZnuMjJDVNRSPSRecRS3KsRUNFnVBJJYw3rpD,8223,icy-pecan-raccoon,135EK6gvrQ7ZmRhn2sZ23isc6P5eE1Wa32sg2b3dqnxwXiuf45q,46.46510803246075,11.243230022283791,8c1f8b5336991ff,1.0,Monte,Italy
215,112NAKXJqbtoXpC93YPA1TPsBvCcTALWKF1FSdHVNY6hGxHBmb3V,8170,great-fleece-goose,13KSbTWP86zrUXE8kNMo7GreKbEgPu99ZzqTzwzLARayTAxsJsW,50.45720263112588,30.402045899728517,8c1e63851781bff,1.0,Kyiv,Ukraine
216,11HEiNxBVRpPcsqoLiFjtEFjyVFEMxdkJB7qsKkQdLy65rq9jRJ,8160,ripe-daffodil-scorpion,13EN2caKmb67N91g9fMzdJggUfVgiFUZyvGFpi39RLfkmpb1S8V,46.49576171915685,11.29518457122315,8c1f8b5043985ff,0.757568359375,Bolzano,Italy
217,11DpycNpCMx8zuxVpEMcSA1u8QpwwaZYUk39psJKi8viSdSL4Fo,8154,sticky-iron-stork,13utX9xVP6UhaDzCeAXQ2ri4JwaCWkKFuo4YNBX39bopWYNBNsy,26.568462868282744,-81.98756821192575,8c441305b6449ff,0.322662353515625,Cape Coral,United States
218,11mV4zUd8gPvU2FR2w9ecT8m45PP3ASTHemB2FvLARPJV7mhkrt,8110,blurry-glossy-dinosaur,12zFR5s6vP48cAJD7KvSSxXUbiSH9G5EA89MXworKN41rxepRpJ,26.65832984869821,-82.01878449567997,8c44133aa68bdff,0.398406982421875,Cape Coral,United States
219,112hG1ws7dTESmPjC6YCYX7bhFRfXf9bi4kvZ92yoUtihCXmomKt,8096,restless-violet-penguin,134y2EHshBpj4k5ysVWrVy3faMYDjkg7YwPkdgXpctbmTyTZ4ne,26.584828529068254,-81.93959432344033,8c44133b2d43dff,0.398406982421875,Cape Coral,United States
220,112VcKQ9G2KQovZg4Geq54phFJFfqLYsPnAa2fQPYNpDRjEroTCL,8089,,,0,0,,0,fail,fail
221,11DeM4zr5detpdwv7PS3b39dEFXgNzRcNTYB2Z9Eu3iiGaZKD12,8081,real-smoke-nightingale,13osxjaqcE2KzHjdbJn5RaZJDRMoYi978jbKFmoUNo3zhbSLLz5,45.20897455775592,5.789123760415901,8c1f9ed9c6a15ff,0.5,Meylan,France
222,11Cfp2L6bB2DcdbScE9NidfLHcj7rMzmcZfGiMpi71EMZCu4v9m,8076,blurry-graphite-orangutan,14q7Wo1ArDqdH8zFGer38gBZr4W9GtVrsmYmoCmLwDfVURWxpPA,50.642480177166405,3.119200295789936,8c194d2830c53ff,1.0,Mons-en-Barœul,France
223,112ro5jwxfsAJS7afZEhRwRs2Y5wxWt5gUsS6wjiHYqW6yupLuTj,8028,urban-goldenrod-elephant,14eY4gW8HkwBuarMFLbwy61dVe9dupCwCf5odo8FM8JnX1v7Vbm,26.564033877448598,-82.03078265382962,8c44133a48a97ff,0.398406982421875,Cape Coral,United States
224,112Y51PajjmidpEpbQXtheoiaDTxHtnHfpZYuQLajmpxV9gd39u1,7988,strong-pistachio-yeti,14BbZGVCBBE94eSgwxULZb3kfjsjQUuEt8bnEbEpwrtC3W1FFAE,33.96754478744458,-116.50540038541904,8c29a05b34eabff,1.0,Desert Hot Springs,United States
225,112JMt8W7CRHybXmrQoDvKAcwoVPjZLK6XYFvs5uGkibVmGaDBE9,7984,fun-clear-dragon,14F1WXPPQnNwfwfrhoN6EQb7qfM9JKraxraazT4SCFiMu3sU8G5,33.93564777252773,-118.26198829807865,8c29a56c01b4dff,0.3154144287109375,Los Angeles,United States
226,112BYkPgAhV1UvsUrqm2wEgqfv17jEvLfwqeWVvc2odFa7t5cuvS,7945,abundant-wool-panda,14APUjDAyiBuQ7MdFWzRMrCdcexVDerpc9KEq6WZWTDQtmDk7a2,52.34349748995764,4.915818476708077,8c1969522b5e3ff,0.1214599609375,Amsterdam,Netherlands
227,112Unt1MxqGQ7bmNebLBd5wr7SZjbHk9DZQYpLcbg4kxNoSGUKi2,7941,gorgeous-foggy-turkey,14XPj7q7SGMNKJzXn33Xct3FMw8B5Ye8q1G5aj8kY5iHWc2FPUN,37.872656773470524,32.543211184957705,8c3f6db988db3ff,1.0,Horozluhan Osb,Turkey
228,112EQBeEvoncKeiLgg3jLS47Ad9hAaCC8VZR7nnQzDWkhFNuJmJ5,7927,sour-bronze-scallop,14316NR4HS3pMDy5zsgcE8FLLW49QvLCa2ok3okhgA6wfmJdW8V,50.07592541688105,19.987241357778945,8c1e2e6a35837ff,0.469482421875,Kraków,Poland
229,11xjJ5dJqU47xvgZrsdW7x7jeM4HkvfbsFFRpPgDyWmA2zEftXD,7925,clever-foggy-cricket,147rQiDMRdkb3RWnhqrqhRXoJ84oWX9P8tGXH8kM9tNVfARu1ak,45.52683542207431,-73.51193190285007,8c2baa46c1999ff,0.2963409423828125,Longueuil,Canada
230,1125FpZch9Vsq52xYiRpu17PycfBo7rZhyCZiCg51s4r8NJ1vVcA,7917,fantastic-fern-moth,13owmEUTH8LhdL8tydPd28DatCNvq4GbEBmjreXePSVLNgCC5yL,13.859242713541667,100.55046098365895,8c64a4b8602a3ff,0.883392333984375,Khwaeng Thung Song Hong,Thailand
231,112GER6jnMzH1SRoxnPDkBbWxyYaLiTUYWgCWogKQajqxWtcatbk,7895,dapper-pine-millipede,136zufZxDAveSd91FQukJNBrM4LxtxAukC5nCAbHbkVRphUkL1Q,13.841949591320821,100.51109340815078,8c64a4b819911ff,0.883392333984375,Tambon Talat Kwan,Thailand
232,11YV6nmT8HpokUWtHKYQ1Qovi5zd4AGr5o8cEsJAAmuMMkhkaST,7891,old-tweed-pike,13FbySpkhhvz71rZFgDXpxZKNH4szz7HYSkgLeZJDFDZ5V4dup6,46.456599641063065,11.240230388860086,8c1f8b51422dbff,1.0,Eppan an der Weinstraße.,Italy
233,119jgo9CFiAVpp7i2e1quWc7KzVQe9LUpYnDhgkrB3ape61SEEv,7883,soft-licorice-sardine,14iSeLL6DVGJWWN3EBb7LbyAtmu2XZpuFpvQhSoVTr7UTJ1esvB,36.31187876752856,-115.23991651694864,8c2986a8d463bff,0.2932281494140625,Las Vegas,United States
234,11z8dfWqutaKthP4AJqPW9Lqp1XZhs5XJjvKfyxbaity1bjjV2U,7825,amusing-sapphire-rat,14c1WU1DF6dy6VvYjhQrrNrtLVeiVJsqazodH3eZSFbsC6ATZaq,47.401806810259934,8.397105063393699,8c1f83aead9d1ff,0.6666717529296875,Dietikon,Switzerland
235,112Wixc6u2NUQe2cCJFU7U26pmquHFeBSZ8yjqFY8nqd25nsRSLQ,7795,plain-clear-meerkat,13kFHeY4H4WGYStDbYsawH5tB7NierCkWUuNdtnXYyRdykCppyr,44.80946195004853,20.434212943144264,8c1e1b28aa03bff,0.634918212890625,Beograd,Serbia
236,112D52rkbc9E1WxzikCxKedohAEgx7pkf7xKnTHW77yVVnmhDjxJ,7781,,,0,0,,0,fail,fail
237,112dXq3qA1G1rdBbA2MGKSET6mmnqM6dcGRiNfqxLjAD7d4G5Hdz,7756,modern-crimson-toad,149fMRUP9UVro1J1eREMTjfa7k28kEKew2QcmT54b63TvaeUDgP,43.48072809855841,-79.71979333407636,8c2b9b55532bdff,0.26251220703125,Oakville,Canada
238,112UuaiawJKdm4MZoPL3hibQj3Dtt57TCMkWC1g3AQgAnZiJRkKV,7752,beautiful-menthol-cuckoo,14e8FRbvNCpKkZhJVAy19dxPfAGRrB4bXL3vcatFVn8PhmBjy9L,26.596889039187978,-81.95218156764865,8c44133b2a499ff,0.398406982421875,Cape Coral,United States
239,11oC4kcK8G85BBTTm9XQKsWqP1y6m4TnmNBqt6U5rUNFQ7qEScb,7718,micro-burlap-quail,13j6xeSn6nnFPF7jg2VGkmD4CQCq2Mp5NyHNtsSQywEwy9c12yH,34.01761551568314,-118.16991711263499,8c29a1d28773dff,0.3180694580078125,East Los Angeles,United States
240,112RNaL9DaN8rmqVrEFiZhF5ETWSsnn5oSUiauC61ea6tsyqEayW,7694,crazy-olive-deer,13FgfDiWtTgpacz8GtMJtHPNpwWkgHMUtyH1qoAqVUvdk3LKw4u,26.606583061470477,-81.92660247250656,8c4413394cb25ff,0.398406982421875,Cape Coral,United States
241,112F4vrLirXkMfvSq3VAJvZo6VX8HxEeKVBS6qQrsnGubzXHxbYt,7685,fun-shadow-mole,14jjcjfvhUjvFdKhp5bfiHwbJuwBFKwPw2P49V3rNhmc4mjiGHv,26.643682937313955,-81.96247532491135,8c441338256c7ff,0.398406982421875,Cape Coral,United States
242,11PY6P6aEU7tf2zzTZeXH4ppzaSwGPqmmtJ9J8K3iBASqhUTopF,7683,,,0,0,,0,fail,fail
243,11Y5TfRuEn3U8rV4iEvQhfH8PSVWtULQSCiqmtf3kaxu4PCrrbh,7665,colossal-cedar-alpaca,13npQe4vpq2PcqnRzvGzBq4Xp68UuvkFNSzsV8oivLg5mmrgEqQ,13.822331550848684,100.50616170455774,8c64a4baad56bff,0.883392333984375,Bang Khen,Thailand
244,11yLRcQnFAXodiMJXzGxCKiudx8QfGKXLpymvKBmnBcAd4QUAte,7656,fierce-fern-porpoise,14bVCjrvFqz8HyxC78WDRzm24xV7BQWU8dGa1tYZ2anP6QjTjq6,20.7187607310238,-156.34267944030478,8c5d16b455835ff,1.0,Kula,United States
245,11rw4Keggnp6u4tBgVtmPR75CgWPHSMxqsgCP9Y8EEuS8bXiKCJ,7645,,,0,0,,0,fail,fail
246,11Lj8EMxVxsZSNMjXpx6Z32K6BVJ5hBH9Bks484iMRf8cEaUnnu,7636,short-ash-jaguar,13Fk3eabHEbKxZoN5QfNEhVN3sVcKrW4W5jGYLRNEupUdLfwao1,26.680195808996075,-81.99607048288581,8c441338e7289ff,0.398406982421875,Cape Coral,United States
247,11aWjH1US1mzpDkYfDo5QwC3EptxZ1TcCKgvqSmxHMtdf8UE2Au,7629,main-mossy-sheep,14NLUJfff9cLxd4aXfkBDBABnKaiVi3ZdZyqbRAT3bUFAUGhcdc,26.5297352350516,-81.85247105710934,8c44130c2c769ff,0.83892822265625,Fort Myers,United States
248,11WRvBHnjrQy3ZAu2pCtyZZihkZcTR4aCfYcaSgA5ysJDMWXgp9,7605,,,0,0,,0,fail,fail
249,1125nA2MNbuqSC1AGLQrLqVni6642qE16ucmPpd7q4oUsM5oLbVv,7603,glorious-scarlet-goldfish,13WJXGwiyVn6VPAwMkdpzbtVR1YawPqEnyXVeKFptNgtnV9dAsD,43.851775555302666,-79.34258791598928,8c2b9bd2b64d3ff,0.3261260986328125,Markham,Canada
250,11EedaSLCkDhbsJ1FAFwPDCPtRZ3GHBUr7iTZAZYVMroFwcAPXr,7599,dazzling-vinyl-hamster,13Mq1hdWZD3ZvD3pVqJTpNQEC9smaZPXU15KLBEkRmpwZt8fxZq,48.922442693221114,2.5210403659551197,8c1fb429d04d1ff,1.0,Livry-Gargan,France
251,11xoyMp7affZSJjT8uDCUwWoDBa3MGfJiDxVwVbhnRskMKbgzfU,7598,cool-boysenberry-snake,14qrReF5GEWFviP3Q64e1bvUkm4nHNrZCS6tJ2BTYg9XoLpo2x3,47.3739625227939,8.53843432052723,8c1f8ed9542d9ff,0.330108642578125,Zürich,Switzerland
252,112kUawt9GpKWqYja6sSrFFCZHUCgsgAjn1F9atpNzQdfnJ5in8D,7573,long-butter-porcupine,13SHYpyCK79Yh33TXKyTmN1AETR5V9CnLXVWbP3hNr8UZcEwjre,25.557989355286047,-80.45166941015476,8c44a195c0c05ff,0.7055511474609375,Miami,United States
253,112MgU6aL3wvpEp1XNWjsU5ZAMa6J5QeFDki84D48J22BVXWtMSB,7561,late-jetblack-lion,13pSKHR1uPvFEK37JmUnXRC5EwUaDq6JLfa81sr5zs7jVcqWDD6,13.822728810846368,100.5318702408095,8c64a4ba36e59ff,0.883392333984375,Khwaeng Wong Sawang,Thailand
254,118g4y19tWmw68aQtWqpboTBzRb8ieRYpNPsbWUv5YwzDAYCbFC,7534,radiant-gunmetal-crab,14iSeLL6DVGJWWN3EBb7LbyAtmu2XZpuFpvQhSoVTr7UTJ1esvB,36.306142247354984,-115.23777398716327,8c2986a8dcd09ff,0.2932281494140625,Las Vegas,United States
255,112BtQLaBpTHxLyjuma33FKkXZV3yEjLrmcnVxkozTt6fEEa1ULp,7474,acrobatic-brick-barracuda,13mac6bGE4Mxv6T3Ueu5rAT2T3kasS7yVK8XXEHbSsQk793KkN9,46.525678793386014,11.229942836211105,8c1f8bc9b29c3ff,1.0,Andrian,Italy
256,11cKQEqmHtBot3MEkUpCpwwrDV9YV1vXEYhfrtHXH3yzxTuRMCR,7454,chilly-menthol-okapi,131ZLpbUTnZ5dvTbdaZyGDpjrNKEsWyR1vE92mvd7XLpDNVKtws,42.011874931505275,-88.16740254117941,8c2759233ce21ff,0.5574951171875,Streamwood,United States
257,112KSwfsWWSVXXBgA6wMVhw1SWmiCxMaf8K1HVkY2xcmtGhq2Jn5,7447,icy-cinnabar-skunk,14XKWqAnKUV6p3XisDBXibsnN5xctf7RpfcSwoi2uxnxo6mmEMf,13.813696271682357,100.56063190663511,8c64a4ba2b943ff,0.883392333984375,Khwaeng Chom Phon,Thailand
258,11FDzQCLtRJVDZ2yG9NVHeZK6iLeQbWwB9RfZ468KAogcSeH3KM,7447,polite-bone-marmot,13KNsdi9rE5MsbgxnwgqoaSB5FKNET8L5vmSZLQmHLTKj8mrL1j,26.658931273263338,-81.79674201380847,8c44137736d2bff,1.0,Fort Myers,United States
259,11H31o88hBX8JZLHrqvcP52jqJYfp5qTuebWqDMFkz8qdRG8D34,7418,rough-sapphire-sloth,13EMTqYar39xRnH27uxjgE2noth1EBqwKfS5egPSh19RH9L3PUZ,44.79295542382801,20.462362307951516,8c1e1b28b6cebff,0.9070281982421875,Beograd,Serbia
260,112J5hJKnjHjtw6MNdWUQsFGkXv5KYoPo2nw65YfSy2w3gFRZVS2,7380,puny-midnight-goldfish,14jjcjfvhUjvFdKhp5bfiHwbJuwBFKwPw2P49V3rNhmc4mjiGHv,26.63954789972223,-81.98496780034142,8c44133800b15ff,0.398406982421875,Cape Coral,United States
261,112W8WW8K3VFPnHqffoRmWLJsKSkLs1pLPUD9bWhRXGYu6uqzVzw,7322,rare-sandstone-crow,14Nu7wku7UWCbk12nzVzXpxi9iXvTqEizqPu7Hiu2wqoFuNxPBF,13.856045939660858,100.54854765137237,8c64a4b86ab2dff,0.883392333984375,Khwaeng Thung Song Hong,Thailand
262,1124c9utse6ciLUbfG7ekKQEhfNeFuNSiJ2jNNSGtqs9qvVcCWss,7309,creamy-vinyl-wasp,13YjpLE1gtLvKPV2m5spQw6hbqRfj5mkhggFssAo7R34EJpCcEu,41.497240982871695,-87.46974157715988,8c26640ab7367ff,0.5,Schererville,United States
263,112QtUsBBoctTq2pBogUtf3iDajPbcmQXRJJr1bV82B5NyCLq3Ru,7306,shambolic-glass-mandrill,14mMewE1oeM49TfzbdwmwqRoLV2n45ZUvWwUdRZKxwo45zrmqRg,13.7962080319418,100.54816276868357,8c64a4ba031edff,0.4416961669921875,Khwaeng Samsen Nai,Thailand
264,115YdRUpEEizCBjhZQ7XMpfeFzArMbJvRh2bmjEirdtkNEBDkcw,7196,quick-gingerbread-eel,13npQe4vpq2PcqnRzvGzBq4Xp68UuvkFNSzsV8oivLg5mmrgEqQ,13.831327530051478,100.50077507217337,8c64a4baa55a5ff,0.883392333984375,Tambon Suan Yai,Thailand
265,112wZjPh88VDSUDynreRoDdAGPzeF2J33qjg6RTkX5NiqL9NQp6S,7178,upbeat-tweed-mandrill,13WpWyBaZKqpKCx2D5ZdAQitxPjFXfY6xE1JAKRQr4RJgn2DMie,42.015393890739915,-88.1831503683526,8c27592322b05ff,0.27874755859375,Streamwood,United States
266,11PSXXE5npSeuMZLMsgR21JJuLKoRu9sqH8v8jnofwQzPAzdrCH,7170,blunt-rouge-ostrich,13wLKNbnufw4ETAe9LpzkugBk1vMibkiHzTQ1TJARYMEBQCET3C,45.288368312433164,19.82350606751013,8c1e1b12ed69bff,0.5988006591796875,Novi Sad,Serbia
267,11pJdt8UPRqGiStSap4nayMLWgtGY8GDgaWLkYHFBSZf3avcKQX,7160,lone-tangerine-barracuda,13oZD4tZEjxNZJZJg5f4xf4xssbMi38tyc41Kox5yZTRqhH1gcu,25.042411758644487,-77.28626412104187,8c44b56810c5bff,1.0,Nassau,The Bahamas
268,11Rtvm3K4dhQyrQ2c5QLpxbhpWCVuqrLtP7n76bXht8MLFbgPVq,7115,soft-zinc-halibut,139gyRbRaQgTcfmCpLrUFjiop7gpEJMrgy8mPHv5GQjDpp7sr64,26.555380151435248,-81.9547900747568,8c44130e93a89ff,0.83892822265625,Cape Coral,United States
269,112AKjKRmAR3HcxoswtrQzeGbRNZgZxJJNb6iy8Mch4EuakWUWfD,7103,prehistoric-cloth-seahorse,14KikykRxFcx8FpXNmCVRg11RS6Qg64zQFGhsyYihodubR46re5,46.462395423985754,11.247450626243399,8c1f8b515c211ff,1.0,Eppan an der Weinstraße.,Italy
270,11BHmQDDMu1p49jVywgh97h1oMb3q45wMrEJEfjFPHNGycUNa77,7090,mini-honey-dove,14UuVEF8P7xoMdji1q1LP19UQR7VjAt9wi8GJjmotA9iAa72MQg,50.39399014610236,30.601830990670585,8c1e63bae36b5ff,1.0,Kyiv,Ukraine
271,112XKmCetyoQTMYD2QnsZkJixBFwwVjzW2weCXaNmsGxy4MVbTsF,7089,keen-denim-pike,13tQQaJkPDbrubavqDs8dn9MKrkjTpEGVuemitGr6GDtimDhnmp,46.49266095012211,11.322148625511725,8c1f8b5056131ff,0.757568359375,Bozen,Italy
272,11r9SqbkQpEXce1A7CTaYVWkY6pVMm1VtW164EHjN2zERFH5K4K,7061,macho-fuzzy-seal,14sPkfAqRDddWCrmZtrMu9Mc7A6rrcnZWUMBGqejAQS8HrSJgTq,48.83145892322604,2.3556907100533038,8c1fb467165a7ff,0.2419281005859375,Paris,France
273,11qNyDfbdYEHZhXTNB9amSN7Y4L4d1aaCVMjSM7BDpxWyX6tK2j,7050,recumbent-pecan-jay,14VHfmp2cjtCGLEPe8aqeFtYCPA3ZF62TWJoyiZ6RVDgPfpzZzJ,13.792270898674007,100.47470620007192,8c64a4ba9d441ff,0.883392333984375,Tambon Wat Chalo,Thailand
274,1123mvQCgRbBDn3G1pxX5xMczrj78B3VSgHVXQn3EJkuekka6K7Y,6985,bent-malachite-anteater,12yZbhcTufRwPVoJRqfX7CsPyhuepwNiNdWqKj8yXaovHDjoJCd,57.113872256785776,12.285585975436575,8c1f218b32239ff,0.8333282470703125,Håsten,Sweden
275,112sATq31skLZhfWUpr5Y2qVBGbtqfpyUpztzshaxjVdMQZCMct4,6978,powerful-navy-sardine,14PLzm6X8boc27tWMmjuz1d7HAWxcvHEW2m976QZNmqGtvAeUj9,39.894076343157,116.3283716471376,8c31aa404d8d1ff,1.0,Xicheng Qu,China
276,11E9t2KuxtQdWhc4WrjC37wygCDTvcnQqEcmZb3vZb3TX3s71Hp,6967,long-coral-yeti,13GJKft8AvrnqNJ5pGtPxjYu5SwJUJhU4MT6f3YLUNRwhyJRDtY,48.78908260067541,2.3194648320734794,8c1fb4656a069ff,0.2830657958984375,Cachan,France
277,13759s3VoBRGuAgwEcCCrFgDucwNPyKNy3wt7gNiGdHKCMSAYAk,6957,,,0,0,,0,fail,fail
278,112MCpPAv9QFFHmRjuYmK3y9srqGjpkBtTo7CJ8CYGjcgBF1Rh8g,6913,shaggy-lavender-mole,13hvied7Udk6KgSaJnU9T6F78yURgAqcB2WwvPuofErRQBqarQk,34.01060103355386,-118.21273599161049,8c29a56da543bff,0.3154144287109375,Vernon,United States
279,112s7ufuxSpgfKMqjqEujKurYyMxRTdmVxe8Cwi49pVsyFkGPM2,6858,hot-lemonade-robin,13fKDZpu43oZGUvfZhQWW5RxEtzwuxhSsisEoGfz1PQG1s3nhew,52.55871900949839,4.657574277887711,8c19682209b11ff,0.977996826171875,Castricum,Netherlands
280,112BEqMWaxGSjGWw1Pm93j1ZujG9iNUEqNRwPBWYcP2CN4ADggbn,6851,large-azure-mantaray,14QJHoqcRbb3KgM5PvQqJAF9dXDUSogzPAGSjLNRKo2Dn8Ba1FT,40.601766023803336,-75.47271189162011,8c2a127704033ff,0.4329071044921875,Allentown,United States
281,11X95KTF7GrnDTcE4nHPnmvwoZq2ydWpYFSRytTadLKz7h3BZqL,6838,shambolic-hazel-python,12wvEmvF2Yg8UtX8iUi6ycbZp9VReSkqBGJDfhqzpQz7Zv3S9RK,48.81181914025329,2.3419884293705873,8c1fb46736e37ff,0.2419281005859375,Gentilly,France
282,112hdCvHQJni29Ekd1awVwH3s66fkuQumhDJnuspsN1G9DDGMdSc,6834,feisty-pearl-porcupine,139y75RiqUds9av1hP62AgydihKZy7r8tsnGM4eeXbi8E6RLodw,52.35228758210851,-1.775404087214723,8c195c31b791dff,1.0,Hockley Heath,United Kingdom
283,112TWkveHBu3HUi4gqnve8RMq5NQ9vj8EAgAxE2JKSswki2cUEc7,6826,clever-amethyst-chameleon,14847mxAVN5RUiXDaJojbJxgWF7ccjcP1y7Bg3gSQZTHPet12D3,43.39804720464404,-80.43402254191548,8c2ab48ed9505ff,0.2142181396484375,Kitchener,Canada
284,119RkUSB2mLs4WZMdKm3kobPbUMdoZrKKZeBV6yxVstcVeNLmiH,6822,,,0,0,,0,fail,fail
285,11RACmF7JjEHodty8Wxskt5ZUxXbf6Kt1mofj6WtQiFQs6EHe9z,6803,fancy-orange-hamster,14kb7mMumf5qG1VdUj1mWmGg7x6z7Ce6kmjVPwZ8u846yP6EVmW,38.70224268478457,35.5600222636626,8c2d114858969ff,1.0,Talas,Turkey
286,112T24zxVq4Go3oDNtJ49UqChe6rvvW3KRebvqVf4Y4h3um2yDq5,6800,brave-malachite-armadillo,14gaScn4h8rc88hrzEDHqobm1XSWpcysRfkRfBgbdamHAeB7oQp,13.85321847046295,100.53903266563118,8c64a4b80dab9ff,0.883392333984375,Tambon Bang Khen,Thailand
287,1117beuhjG9hLMHTGhxpb5YZUuEYchgbbVSF9EmhNibiyBpx2oy,6782,wide-brick-jay,14LDzyGs2THaWJ9x73oUvCdjTcVvYorALYAQjRHgcQUHCkDXpTk,44.736882140686035,20.499836140726927,8c1ef5905b61bff,1.0,Beograd,Serbia
288,119Lp7w8nMp7GpENdLzuhNuiCuWN4ikqfQSYyyF1GAQFidF1ZCY,6774,suave-rosewood-shell,13d8SmdXwkzPwuXh7xJjTRCKByWXB3cYxpuZLemUkgHLxzrgcRG,13.829835719710346,100.52430875686343,8c64a4b851161ff,0.883392333984375,Khwaeng Wong Sawang,Thailand
289,112ELfw1bobNqa9zGDmfbKKQvyQTf7iJMkkUhvTdeKsYttocAdnS,6773,fresh-marigold-frog,139gyRbRaQgTcfmCpLrUFjiop7gpEJMrgy8mPHv5GQjDpp7sr64,26.603728265353933,-81.91694120973347,8c44130c97753ff,0.419464111328125,Cape Coral,United States
290,11QNS7HvaDiTomZtj7QwFyaFEjoE3dwJr1HedtzFhLkUw3288ta,6773,,,0,0,,0,fail,fail
291,11o6h1vgVTGsvdnKZEjaiDTdfvmCZp6w4cvyMBG1U6P2T9KQT68,6752,proper-arctic-sloth,14nxY6Tw4WaHqGvUShbbuqZpuBjWy5GtEVBDPqXMdU2QRPnvXWy,26.660250827740985,-81.97833922889082,8c441338354d9ff,0.398406982421875,Cape Coral,United States
292,11oyQSdZC67rt8fKLGJrXTbpMKXnsLZZ5a8HR9p1YY5XabMrzod,6721,faithful-wintergreen-shrimp,14inh37yFAABEPSszunnNSQQhuqYepdGYWULGjQMMwVFN39SJRp,26.580845437476768,-81.94869708696355,8c44133b62f09ff,0.398406982421875,Cape Coral,United States
293,112muzPEaAnu9bEriLciVKQV8fRE51BY7b6UhUQDYuJpWhqLuyge,6718,delightful-tan-chinchilla,14QSq9Wtmb3jpk2gfQCCUVrRLFpJJSN2vtn3jyb7R4QcHMfYQiu,33.97431291096384,-116.50477906891267,8c29a0594a419ff,1.0,Desert Hot Springs,United States
294,11tW8QACVqfiAeTtr8dtfWWKGL6R2fXwoWRPpHEf8h15YokXsZZ,6686,breezy-concrete-spider,13vob7XEz1TEmLEAPP7CYphDeLX8N2PGSAY2AGX9CgKfp4FNz6r,52.43275814227984,13.746793017072546,8c1f18b489aadff,1.0,Erkner,Germany
295,11fuBVktacPQ2PtRrQPP3EaoLNRUM5f3YFf4HHKEfdE2M2Sw1Br,6669,square-ruby-scallop,13EN2caKmb67N91g9fMzdJggUfVgiFUZyvGFpi39RLfkmpb1S8V,46.49504400467627,11.292979484519513,8c1f8b504763bff,0.757568359375,Bozen,Italy
296,11NbjjPNdnAiNa2nfdQtyZDj6xpvxhfF2UuVnoHaqeVkTkYBuFz,6645,tall-mint-jellyfish,14BYUuFH1QaaabGbYDjHRadjgqDPi4JBUMDP6WQFYXo3CpEz463,39.339251074918906,-0.319678276036939,8c395472026edff,1.0,Valencia,Spain
297,112Jo24sJjLbgZzRxZgqtDRz6UJg6WZrZbYrocTpLjA4qKehCMi5,6610,cheesy-latte-horse,14deddH29TM4qKtGxtUoRLbsB5RRfKBkWubgc3RJmoCirH9YG7Y,43.441130074943764,-80.46114776056925,8c2ab48e5add3ff,0.5100555419921875,Kitchener,Canada
298,112tybRBLSWa6NnUHjbsF5JgfogwXjzkWwESLXs94q2cDJZiLndX,6608,wobbly-hazelnut-cormorant,14jdN1NofJAoJoWsrFChjFhgjc8pFtdXdMmyygGk1CWvPjJqazS,48.8090618749619,2.329232006152744,8c1fb4654b1a5ff,0.2830657958984375,Arcueil,France
299,112FwUcD7HLb8AcYzTQ5ZCrV18uoU4sQtwGwkEuF2ASs8urcKd9p,6606,joyous-marmalade-penguin,14SRjiLUs1RcRw6uf7DuBUcvhBAubs3oFuqech1qZ6BJGSTYW9x,26.567998868407415,-81.96917229512104,8c44133b40503ff,0.398406982421875,Cape Coral,United States
300,11pDAVD7qrYVqkJwQD7XaKCwWHui99gYC85ZUAdakzx9Qm7dCF6,6601,sleepy-khaki-mallard,13EMTqYar39xRnH27uxjgE2noth1EBqwKfS5egPSh19RH9L3PUZ,44.819467781165315,20.47251646915413,8c1e1b289724dff,0.211639404296875,Beograd,Serbia
301,11gHCs9zZJZ2oH4P2ihDEaTm6omNvadU7gB99EwZpW7bJLnqcyv,6574,powerful-ginger-quail,134gc5PoAVTfbwYRqmDR1jHgdgWKka61jzd443mf6JTq1cUNGsZ,59.40395758585101,17.944323397956065,8c088662dadc7ff,0.162872314453125,Kista,Sweden
302,11sAkbpGVnPJn7nAKArNk8kz7DQvwZfWAuywwjNXW9dcGLeSDAF,6570,elegant-daffodil-mouse,14iSeLL6DVGJWWN3EBb7LbyAtmu2XZpuFpvQhSoVTr7UTJ1esvB,36.34018780094786,-115.20845639379873,8c2986a8a26cbff,0.4105072021484375,Las Vegas,United States
303,11Y7P2EnEJupwgrmFMExmv3uxnY3VgSsypi5LmN4wCm6gzmYeBH,6558,stable-merlot-tuna,13GYh8bnLHyVVa1HBAkWPA9KC1n9gHguA3PQXs7kT5dTyLg85Fw,45.01027107326068,-93.51805336450215,8c2621a45d289ff,1.0,Plymouth,United States
304,131onNXwnmwXaorMU2nxkmK5iDMLFNsuWh1YwraGREsj3inhffS,6530,,,0,0,,0,fail,fail
305,112Yspos1oeNcuSKdghFGjutg3c6ihUE3d6ZRZagXdFUrNGiE57q,6523,winning-tartan-turkey,136zufZxDAveSd91FQukJNBrM4LxtxAukC5nCAbHbkVRphUkL1Q,13.82689732784445,100.5266184853044,8c64a4b858941ff,0.883392333984375,Khwaeng Wong Sawang,Thailand
306,11dszU6QKiAE64wGqhw2NVKeXsidZpEizzFkEja5rkFrudaU5YW,6507,innocent-peach-kestrel,14m1ajV5x8X7B1m6SfKUuJzEzJWAEAqvxP436vN3JKVwcnyxabH,26.565589633016383,-81.9979053153018,8c441305b3653ff,0.64532470703125,Cape Coral,United States
307,11Fr9Ss5fyKwT7aTZi6LSZCXnakzHvycgNw4bbwcHgsRffTu3d6,6504,blunt-pineapple-goldfish,13mz8BZAWBZhKv3GcAFk9kzZEMTTtMZqNEREQC1UY2uENKzad4t,44.83843815116194,20.419616174629883,8c1e1b28c466bff,0.9523773193359375,Beograd,Serbia
308,1122dZ7LksfVwQrNko32MzWJVZmEcTtZDoDSqycKWS1RF6hqGeFR,6481,pet-raspberry-platypus,14Y7pa5SJQ8cm7NdER7zGD6MJtxpvFS4Ues74qq9fME9ENSHQ7i,58.39330454086708,15.58223652043913,8c08b3d1d543dff,1.0,Linköping,Sweden
309,112JTSvKDrDJtPuPLY6XSnAY4vDaj74cDRCFeAvX8HCYDia6Wjjo,6472,,,0,0,,0,fail,fail
310,11FEHZb8n8cakXdZBhXhduvGbfhmxXajHnFeaCM1fQepVYtbJvm,6449,,,0,0,,0,fail,fail
311,11k2J8CXgfrEDaHXaWevYsZMZAVziBJDkS8H9eWRWYEFwDJEh6t,6439,spicy-gingham-dragon,14pZ23vS3v1qc1eZiccPWtAFbG7MhVVGz1ug6Y26P7eUgq1GyjG,50.583291819054686,8.668114301614878,8c1fac4700521ff,0.6756744384765625,Gießen,Germany
312,14pBFLmvbB7E9Dny8J5qXhbYPNt6Z6B2M26jFnmHwLPghC7BETe,6425,pet-shamrock-dachshund,13cJPo8jVU8wrdSTmtxvPdeo64SSz5fiVKJtyLEj2Uz8xwg3JDZ,13.909521404811565,100.54997722821963,8c64a4b91593bff,,Ban Mai,Thailand
313,11DD8mAeMNmUua8nppyjGKZNeuUWGSsz9RmWvKFtsGSsiHukgz7,6424,fun-gauze-sawfish,13pmfNQ521Eb1xG4cr1qEdgMMXxD6JrWij7LFXAk36vxnPNUTqB,45.46366903598589,-122.52514158296627,8c28f01ae1869ff,0.1839599609375,Portland,United States
314,11pRxhEMrzYobfRVeKkqhyPQ56MzcB82gj12dqRhm3tcfFJnSSN,6420,calm-satin-tarantula,1451nFdHnAEPekfVcfeKVwXJmHx7fWaMnHycLxdLst9p9YMg5W9,39.31653666713119,-96.38277050572368,8c26e436281e5ff,1.0,Westmoreland,United States
315,11hPx6Fszk9D9nPyLfVJYEFvs9CapFzXQk717aQzfvwt9V7fABy,6417,cuddly-rusty-scorpion,13366vEgk5zNrA3KLUnoemcmWVHVwE6AFSx9vEGYqRdr7UgsaKm,48.864476412687644,2.4082288709865503,8c1fb466ec007ff,0.2830657958984375,Paris,France
316,11AYeYCzNGUho1QQDoXWAxsA7o8N5xPeNa4FRr2cUsvePKykpHQ,6414,sour-boysenberry-bat,14P3KaMtpRXzW96k6ZYKiL421kLhxstDRKhUyPREUAifJRC8FMV,13.87417497038874,100.4743112403283,8c64a4b8a8351ff,0.883392333984375,Tambon Sai Ma,Thailand
317,112hDyiA7W7sMMSBUmoScxvExHQQHAqGvEtojAu8Mxn6xxgxzBqN,6400,brief-maroon-kestrel,142sGA8eQSzV7gwBsfKa9n8A8pEvquEBm9d1Yc4utoseTXL4yjf,45.25234829558945,19.86303080353532,8c1e1b10c8729ff,0.5988006591796875,Petrovaradin,Serbia
318,112PvFG3oLnceyimHa4Rn4ddATq7acdZmZrAcG417KicoWvLKT9K,6393,straight-macaroon-cow,13jJcT9WTStPRXcEmwbB7EdB9Jqd7UPPdzweas4DYrLYk3HKkDc,50.58133608499687,8.677647199583197,8c1fac47021a3ff,0.3378448486328125,Gießen,Germany
319,11QdvuUzBuuMv7sXTKzPT3HMCdHYYGgAopFL2boSUuJUJoNNdRe,6371,real-berry-gibbon,13ZxVBN8NnnzDVMWNWU1EqjcmqZXkuRExd8szBaiKDbJn91tP8y,43.433465526359434,-80.43152765322169,8c2ab4850400bff,0.642669677734375,Kitchener,Canada
320,112D3qr8vxHWc5vwjr6ki3MeiNzFaNSM3BH7kaeBtuB3LKsq5uwM,6360,dry-merlot-peacock,14os6Db96BnbeiXsuewDrJ17VUzf1rLNaM4ubjiEmjZFNLXjS5q,59.37278422721258,17.87906096222567,8c08867525ae5ff,0.2327728271484375,Hässelby-Vällingby,Sweden
321,11T3XxZo1sNXY6jxXbxt2MkctFA7PxJKuxQA9NyLqsDzqjGTst9,6311,merry-indigo-panda,14Lwc16KbMD3V7yDLjUMB4ukZqKHoRcUdeBvYDcCBXC7SgEuvTn,37.88414261271493,32.54292083174143,8c3f6db9c2ec7ff,1.0,Horozluhan Osb,Turkey
322,11BTmcT8vHQFHRXarCNcGYNRHfi8J4i5HGJhJqN1HNuhZ2MNuu5,6281,tangy-teal-woodpecker,137SGoi3s6vocEN4nZZsU4wAgGez27L4ng4e4qmqmLvWa354jbv,26.63035568591567,-82.0251356624986,8c44133ae458dff,0.398406982421875,Cape Coral,United States
323,11h2qYPrU45wKooW3K8z6C3BQkB2mHe71EDG6qFiqMCzahGxH14,6243,,,0,0,,0,fail,fail
324,11MBooPPVRjKvc89mvfGpccv45Xys7jXtYx4AdHgKQGieJVCoH8,6240,clever-cider-canary,13XinDxsqReXeNMskPe1nEUP81WbGBRp3RJ8HeZSBevY4YzqDP3,48.75658465014002,2.290808534768174,8c1fb46e54a29ff,0.2837677001953125,Antony,France
325,1121qw9dA4QDnXCPkSikZg8vgMgsURDzsXWGE7VTV8LiJ5XHDucX,6231,wobbly-spruce-yeti,14T9SFkvraKH3N8uFmRxbCTRNJi7YMv4bgpUS5Ud7kQvM5eGG2s,35.36370954439164,24.481277439030322,8c3f72a8bb02dff,1.0,Rethymno,Greece
326,11jM9L1pwpG3MY93hkgkRyy2qbbwHRqaCvPwFfL2j1DEpNay7EV,6231,damp-aqua-cuckoo,13QokkzzRH6VMoVnbeszGniWqssBRcrvvCPcHTFKui59B1FCMUr,22.572082100288362,114.13042253896607,8c411c1694285ff,1.0,Shen Zhen Shi,China
327,113kQU96zqePySTahB7PEde9ZpoWK76DYK1f57wyhjhXCBoAu88,6231,rare-burlap-python,12xaEjC1vhxzZmZZmEhooN3t2kkKEaDULfSibRWMDmCdpQtKJBA,33.977120419035884,-118.2253531675364,8c29a56de95c9ff,0.1570587158203125,Huntington Park,United States
328,112c6yDgqJaZnd3tvMpPVL3s6gjtw3mRtaqLASe2DLG8qaa8DLpE,6211,pet-cobalt-donkey,14qDx7tAKKiZqcZMynewcqKBHVB25FU7uzrW9NjACETzjT7cjZr,33.9441693164057,-118.2311148432957,8c29a56c2d9e1ff,0.315948486328125,Los Angeles,United States
329,11DfwrUiF9vD14erreyETbrnQguT9rVhHnkGi8FCzf3TmGwjW1z,6187,overt-gauze-hawk,13wvv3WWjkf9FPSdnTaatWsR7rhvj9LWLTZ8j5Aq1FXuDRosNbf,59.409537021984384,17.958956459229626,8c088675a56edff,0.464691162109375,Helenelund,Sweden
330,112bR3Ze44ThNg5aveL1HJ81Zb4sdpQoeyYpmu9o1WiFrhzJzQQg,6181,salty-corduroy-eel,13QUMxbAi8qaed2s6ES9yG3z4hitm8TBt6RV9XsHXSGoD5gAZ7s,51.88560515528395,4.509083500712849,8c196bb5eca29ff,0.5578765869140625,Rotterdam,Netherlands
331,1124eFyDQXAHyGdqHkhripNBtEZPoecRDRN7UfpBffQz2LuBJ548,6161,stale-pineapple-millipede,14Tjbri93ZDy2qfGR8q3pxeJx8ckBPvLhgw29MLPywkNhC7bjkj,59.33758831684453,18.05752455397487,8c088661d1aedff,0.2008056640625,Norrmalm,Sweden
332,11bJqLp1nQFuii6BYht36Nt5kSWcEmsATCuHo31ZDoXBSPQ3SAN,6156,fluffy-sage-porcupine,13vCVN5HU8MpB6foWBQo6kWumtFhJRvqvmsSu3dE6xi9CPCffXD,34.00238100087696,-118.13646309395949,8c29a1d2e405dff,0.3177032470703125,Commerce,United States
333,112iayRrgpvyds9gLXfCbL4YdKnSvxzzJJnnUYY9FuFuUkK8ymaw,6130,,,0,0,,0,fail,fail
334,1124K3VvvqXaWdfAWbWDhu2CF1znGDDhyZAewKLTGx7vqjACMrja,6108,tart-black-copperhead,13i8deriAhyxfmPYyHXoXDTa1rjB5PbGG1QhbEFaGkXiDVKY3Ud,52.554268755649304,4.671879781279055,8c19682254183ff,0.977996826171875,Castricum,Netherlands
335,112L3FUpvPaWLTo2eopwMmHjwwKKoqEh7QZ7PZ6mpJRV7SSdfWDD,6107,little-linen-nightingale,12yZbhcTufRwPVoJRqfX7CsPyhuepwNiNdWqKj8yXaovHDjoJCd,57.10959680835571,12.286216634240395,8c1f21895921dff,1.0,Träslöv,Sweden
336,11NKN7ub9rFA92k6mqd8std8rZmirHNPSNYe3mYFxig6fX8LyEi,6106,obedient-oily-goat,14P7CcUkXmsdTGLJsZsFssWrnZ1iGUm2gJbwYn2tgeEARB6GJqa,24.810975717400975,121.03011461290832,8c4ba012aa425ff,1.0,Zhubei City,Taiwan
337,1126K4w87KtgGw8kVpX1vC2XFZyM72mgsLyhGhC4es2FZwDca4TK,6096,nice-graphite-corgi,14X3Rgz596qpLPeUCQs22RgdQ4bCXEAZEYvBEBxbdQhJkhowq3F,34.17975829227727,-118.7561239907374,8c29a18420c23ff,0.5423736572265625,Oak Park,United States
338,112GtsizkkmTHvqxBALc3JyiYrzGzw6syp8t4cJYenA2dEydQsLL,6094,little-cinnamon-mockingbird,13Mhg8dLeYN6yr9b6bBMnP4WkSgtLAon42Bbsa7Jfvvrtppw9NB,39.976103558898345,-75.39141501671955,8c2aac8480a85ff,1.0,Newtown Square,United States
339,112Nrz8DsQwDHbe5xSHsPM4raE55yunXB3rpDxncJnPyL3Gv3nks,6093,howling-bubblegum-hippo,13YSQdasvs89DjqaZBWvAUGvWjQ9PP4VWWKU57C1kZgvhXQx3R8,44.866460092837556,20.46675119775784,8c1e1b2f6d4abff,1.0,Beograd,Serbia
340,11b3AmiPk8enABskUR1WbzzayTTGqHc5daGKBTF3yQBGJrs2Yob,6079,long-clear-koala,14TMreJAyUEZvLyQiG1sa9R3Q3hLjfH2A5MMrMCTVw4VDizpQgW,59.316266141415966,18.048088545782107,8c088661c4f61ff,0.191680908203125,Södermalm,Sweden
341,112sFg2ieCLh4xk5nmGf8fh1a48cFgkVmHgNVgtX9uxzUbf6YjEn,6074,stale-peanut-goblin,13HSyfv6QyqbEJrUySAto9VhDxfUKcq3feEec9osjKEo7W1cpyz,52.60481835225284,4.703247183008444,8c196830ea195ff,0.2444915771484375,Heiloo,Netherlands
342,112682WpjbH1UjoCgbXCxsJzgJDAkK3JHt8Y1sMfmABoCoRvocKA,6026,able-zinc-hyena,13X313CE9tD35SgBwtEtHaTfBVahZRazeTgM1DKFroatXYkmuRf,48.87179899360146,2.5839612799545755,8c1fb0923db15ff,1.0,Chelles,France
343,112kkzZ9jffMhUcBYbAVJA3kNzs6AMvGDcqhkzzxSYKX57xhF1e8,6025,alert-goldenrod-seahorse,13tRHZzWFRddSjVdxfbEUKzwcBFWFnHNqQUjqenvGPXZkLjcvCf,27.720435413497537,-82.44268954505453,8c441ad65d8c1ff,1.0,Ruskin,United States
344,112CVs5ATux9UAjymZfZRpF4euVx4z83r2s83jHzCvjwKDZgdF4S,6022,lively-cinnamon-tortoise,13TPXk13ttUCqh1FMQBJLrThwaijZBFPmomH5kmT79uwpX1gLLo,45.77111490962667,-108.59508022223952,8c279e3650f3dff,1.0,Billings,United States
345,112JC1gumMraRKYc7NFJCgVmVz4qwf7M8e2HiR11g14StFvL1y2a,6007,steep-tawny-sawfish,14J8NvTm4QHDp59KH1YHjzeXMDsb5USpvVuWmqZ7dSAQThMJ9x6,52.376844880525226,4.525857309126849,8c19682c57303ff,0.977996826171875,Zandvoort,Netherlands
346,11MRJLRJvZ7z8ohzp4TiL2HF86aEDvYg7fhoV7HbfLKwj2xoWyB,5996,interesting-hazel-bat,13Y3N2HgsSZuW9cNVujo6pBxgnVnJduwtgNCMWky98FFEt5q438,33.91488510249791,-117.3362039994852,8c29a0153c19dff,0.72991943359375,Riverside,United States
347,112ZXW8VsC9QqnpdHVg4SgU78YDPMgHyxDH5rFKhWAvjnoeLw7Ao,5981,careful-silver-horse,14EFWgk6ve6TYiagRJPYF59Nxh3WcjtABB1zSc5i9jkYLA4kwjf,46.93048727538938,-114.05964576782507,8c28985004a05ff,1.0,Missoula,United States
348,117SDnQxGCYhrC8U4H1nWQMzy4zeNxV8wErLFLZadJwDvmeitSA,5977,joyful-marigold-bobcat,13DkHvzMi1Y8epZCjt7ggCAdzgXzCWrU5yjH93AEMjMUMq4XapZ,59.31877673668941,18.05082418077593,8c088661c7b47ff,0.239593505859375,Södermalm,Sweden
349,112XP4gTkZgsvCtSg9JUB2oMQeT3YnXEJYP4sCnfoEYLJjsWs43t,5966,,,0,0,,0,fail,fail
350,11F39QC5XdLBMej4nqzDAZchG1Attuxw9bxmFKyuCRb5qGWtr3q,5963,,,0,0,,0,fail,fail
351,11jpSiH39MpJv8hiUZQvAtBKnjHz6GzjokHxMtsF62aMVbKLmLx,5957,old-blue-chipmunk,13GwHMWjxLtuR4Q1a3EvqxkwPYyUsyDBT1X2Q2UxH4PNqpzaWs6,36.26002113888499,-115.22195817929567,8c2986aae759bff,0.4105072021484375,Las Vegas,United States
352,11E7UFdPhqZkLRLE4mcDdzisjoc3FZBoeDHPnCWgWJ4ZMfoyDW1,5941,,,0,0,,0,fail,fail
353,11yNsquHvPEGCJNM7Zuch8YLqizRGvJ1ATEYjhxb1Ewp2Ho4rHT,5888,rough-teal-octopus,1472HUq7cZA5MfxeyqwPppB1uGwk8gMuE8fYYqCnQuE3GPzMSkC,50.68469047845125,5.678550421812786,8c1fa08c36f65ff,0.5,Visé,Belgium
354,112Fb43EXVgVuUVneChLXP6h6RQEBfG16KJKUc4vcw4oztSv9MdU,5863,mini-crimson-dalmatian,13mabegh1zYBtFmSssoENvYNxtyaHabGTmLVwvkLAssRsahtEVm,41.27079922687852,-70.09257291859674,8c2a312c02ee3ff,1.0,Nantucket,United States
355,11hhwpyYccpa9Mr21iecEYnS2mD8voDZpds2UUDS7usfbBdkXyT,5852,dizzy-fuchsia-mammoth,14on8voUBbcsTcQtnsx34PVpC56zPRzY721HLXHEgBZzEAvsePx,46.47163609952733,11.255585221851613,8c1f8b5332dc7ff,1.0,San Paolo,Italy
356,112PkYnom23SjQ7CQc8ioEGCRqeyXnkFkiv4dAHjCULbDGGWSfag,5837,,,0,0,,0,fail,fail
357,11cqt1tyYsfx1vf25a9E9G7YFAo9j1LDbBHSvkpf8FdKtE6SzDP,5831,,,0,0,,0,fail,fail
358,14icsMj4gxTavPqBh8D64i9fzzjZ2shL3a2ecMNYfQK9NpW6Gjg,5804,vast-candy-whale,14o3RvtFRHS9ThaaWJjzsfocfzN65p2PqS4pRwEiLqGCVenc6Lh,37.568458915566495,126.97804477677296,8c30e1d8c189bff,,Sejong-daero,South Korea
359,14t9KstjzedWhhJnQaZ8euGA82iznugNZVqFfCNs5BUyoUgwjAh,5798,,,0,0,,0,fail,fail
360,112GT37YQaZ6ZkfgQVW8sSkJQcxo4u3iMPj2VmUQQucEEGzperZB,5785,rough-rusty-troll,14r62ptvMtN2qNFG758S1TuTp8kBPQqY4gkhWvy38kjxNCXFVUe,44.81157968261517,20.47588534783631,8c1e1b2896d61ff,0.42327880859375,Beograd,Serbia
361,118qY3ajc2TQuPdy5KVEkVJDvJgVsaMwEYpvZ1jxTbqS3CjaT7a,5779,curly-scarlet-terrier,14HPcgM6K3GKsBioQdAKccnpcrMZtuE3V6FjsdYfi2KSgxPAroM,13.858877049364382,100.4961184544716,8c64a4b816cc1ff,0.883392333984375,Tambon Talat Kwan,Thailand
362,11xZLT6XVjGpAurG8SbyZLbAnNAaSLah5h2YYVHAvrmPBWeKtad,5777,huge-inky-barbel,146Ug2MwHrec22yzH84txEABAtfXP1XqtqNmH4RVWGRkfntfjmR,55.75671090851582,13.100438120574408,8c1f05b26b63bff,1.0,Kävlinge V,Sweden
363,1123YGnxsS61RoUW1PyrbXQrMoEsGANWtaxvB59iHwoitQEaVK7q,5735,wobbly-menthol-mandrill,14AkiBrb8mBhZMkgr9kjYwgWeMQ2KroErCvUKQcJU8kMhaMiyct,43.45184614269396,-80.51691570006179,8c2ab48e62563ff,0.46368408203125,Kitchener,Canada
364,11ucwhmTPRZ9H5LjGm4BY1ntfoxKjwsASJvostrXK2n8J9kHCm5,5720,spicy-fossilized-mouse,13yApBGGL9RL7hxJKTVdYFP3fFEihnjw4FddhuLBbcDqmHkQCyo,37.44147035752615,24.94583315691566,8c3f75da10b61ff,1.0,Ermoupoli,Greece
365,112nfDqKfDUAt36RFhqjomPxnDWE8eKBEEuVFqJy1ze9h3dhxtYS,5712,passive-fuzzy-zebra,14qA4Pr66BeWb22Xrtj4hSgCSM4McehYdty3dUkR6hb9iSFkHZK,48.95689631888248,18.175829659237746,8c1e001251b29ff,1.0,Dubnica nad Váhom,Slovakia
366,112WjxSQUKQr8kn42mCZK7YjuMmY9c5wuNXt2xCbFTYUnhtXC7NG,5698,massive-champagne-panda,14SRjiLUs1RcRw6uf7DuBUcvhBAubs3oFuqech1qZ6BJGSTYW9x,26.66194821719678,-81.94588121163491,8c441339e92cdff,0.398406982421875,Cape Coral,United States
367,112vXBKMJvcaAUo4pZ6Xe7qDYio7HJ3jPgegrcVRw41ztsME1daY,5694,helpful-lace-swift,14LFUcNbr3VRPioowFAwxLLhKw4iifw5xWW1kKsgRYqrRVvGvMn,48.786368548741535,2.1812619841801983,8c1fb461c9b69ff,0.2837677001953125,Vélizy-Villacoublay,France
368,11JkYQPncuTvFdYfwxsaxjomYmHx2D5XmtSNUfMrsadkBnoJ6os,5676,future-cerulean-lynx,13iDpNin68DMErFBPB6ML8MeyyRFuKdaHzd7ZsBe9GageB5to7n,42.02751836795599,-88.15984450647156,8c27592305481ff,0.5574951171875,Streamwood,United States
369,11jysiso1pwCXeYQMvMQ1NCzjdkdRLvnQYKYL9UhK5mc8A6yzF4,5668,cool-saffron-armadillo,13414ST1UTg17SuB8i3Bvo1R3WmR8Edd7iJBtFqMeCYHpfUsT1X,51.44812107248571,7.256825171415031,8c1fa526dcb2bff,0.1556396484375,Bochum,Germany
370,11P8fWkUySQYtPZYPFLLK1hCZiKWGrsdY8u7TKBPefDEdFv5Ssj,5658,spicy-glass-swallow,13arjHKWCCGH4UHFtED46BK3LteUaQAoxvWKfM6c7n9KxWQW8HS,45.68663977023209,21.206985101355052,8c1ee6934b359ff,1.0,Chișoda,Romania
371,1128NS26yHQTB9YaVx4Xj2f6pJzQcFAnZmymBkzkb4xRHuhjx5wj,5656,,,0,0,,0,fail,fail
372,116gVU9NHjRxpE3jqgvHVjNRCtMWXhSzf9qn8arQwwmYh9Vq56H,5647,sunny-blonde-cheetah,13fFyHyHC8TVYTmAovf1NN9mcJdj6kPa78mA95yHfffDFeb6g3j,52.500709067199374,4.759648628805655,8c1968358cdddff,0.977996826171875,Krommenie,Netherlands
373,11vnAQGpoP3Z1S964fpESDhhqxw86Fv4WBhHcwPsFmJspkhPgGm,5629,skinny-cotton-chameleon,14dk2B8cdofW1K2sFU9xRqpSdohkeVEaNYYpnAgZ9SrWjo8a8xq,55.59873820797796,12.996263148745516,8c1f05b84d533ff,0.2212066650390625,Malmö,Sweden
374,11dVHC5m8nJX1Qj6PYBki7Re7RrNrDseP5urdKBq2Tyn9gBCmRa,5601,ambitious-slate-lemur,13eSa6w8VEdwUmQq1AqD7wYZf2wApYKcMtoK3tKzoY12LPndj26,44.79167174297305,20.53186482491341,8c1e1b2d39997ff,1.0,Beograd,Serbia
375,112sz79NJfv1Nf3PUjM43Ysk23nqmYF32QHXoEDMxX9DsEvqWvfD,5598,curly-currant-capybara,14A91vSP3vB6bh3YPgLD45o9RPuxjT59NEPYExMR6jYRvoxqed3,47.420670953040535,8.526013286608705,8c1f8edb568bbff,0.8153228759765625,Zürich,Switzerland
376,112BdJ4bffX6pSSTDNCWhtSWr7jyCKnsyoYBBtR8zwfMhguwgy4F,5584,harsh-cinnabar-donkey,14jjcjfvhUjvFdKhp5bfiHwbJuwBFKwPw2P49V3rNhmc4mjiGHv,26.582156727490645,-81.97995711553409,8c44133b5091dff,0.396820068359375,Cape Coral,United States
377,112k4LZLGhgwnbCa6LHocteYJmSYEWBAkaXFxxwpkEEsiFkinxLC,5584,rhythmic-watermelon-turkey,14XARFuJWfsLnxToMS9W3NyV15myxweANdKgo4u4ytEy1Qy5ef2,33.88850732893109,-116.61033990239436,8c29a624b1ad5ff,1.0,Palm Springs,United States
378,11zQ96QPVeUvknVKKsZpJ9XueF5aKa2VbtKn66TXyDduyfMzpR6,5577,micro-hemp-hawk,14SUH31WTFSX1DYkJwKEBZVroSFFNmm5jeWgVkZd6bA5vvyrjz9,46.51826147288611,11.23171503140031,8c1f8b5358951ff,1.0,Andrian,Italy
379,11Muhgg2ggyZtnjunKA2cfpH5MEAjoAQg3aetYj8NgftnVht3oP,5568,ambitious-flaxen-lemur,14t8ACfXzAEHMBtAMmPjrxCJmpKn3htuB5p7QCZHfZuhBgCJUBA,24.900949873098913,120.98905767688149,8c4ba08f2245dff,1.0,Xinfeng Township,Taiwan
380,112wTLzBieqnaVMjgVYby68sr1Mv6BPGFS6EnewsTMn9wzFVnBvh,5568,damp-ash-bobcat,13H9ykhRaWw8AVEMqf7rV6Fn9fnLXxZ6G98JEdsA1gdcJKYqQYW,48.9311496053029,2.334408467273511,8c1fb4748500dff,0.2837677001953125,Villeneuve-la-Garenne,France
381,112TEZNCe62PShoEHLQqQi4zpE5dLNfTXZmcYbfB8i6areXWXvhq,5562,clumsy-lava-guppy,14CqW2WMXGk8ZHYAZeSSWpWNSTFdqe2xChJsTvzb6CgLWkBnbei,46.48697547897386,11.345373542713702,8c1f8b501a9dbff,0.757568359375,Bolzano,Italy
382,11earxpQA6ZuCpjfPZVR8RMVJdxe9PcJ5LtQYtDZYw61Lojd3bU,5551,salty-violet-mole,13dgRHJhJ5qb77hoxL2gbGvbUijQKsyyxRyF8tfJe7bkr81d7m8,52.35937342574172,4.62718816369575,8c196825a4e49ff,0.4657135009765625,Heemstede,Netherlands
383,11T2Y3EKoX62xDsX4vVNTPfMVqFR8agsuUVwz1z5vSAAf6feuYJ,5510,broad-crimson-huskie,137b9qVkaTdtuyLoSeiEEyZuQNMdYBbokRYKmVq8ZTveceUM1sb,51.85114314658895,4.5130780737542455,8c196bb5bc92bff,0.5578765869140625,Barendrecht,Netherlands
384,112CKrJKza3PyyxVJtPG19e1r1RCSArhfc5QJVQY97pUts2JtL5j,5510,tangy-lipstick-sawfish,13Qix62wHEreNxXgfpqS8wFSKZPxmu2xFCZfdmgP5JSG5BoM7kF,43.10532557880572,-79.068151627115,8c2b9b3006755ff,1.0,Niagara Falls,Canada
385,11usqaW88EL4U4cv9mRwASfhTriwMW5zrZquxxTeQzXfx3fU38S,5505,docile-coral-fly,14XJCSEG82F13iYvwUfjHKALFLinqursXwx8WwLQJyUQrXaQRaw,26.574014710349545,-81.95721718524983,8c44133b6a443ff,0.398406982421875,Cape Coral,United States
386,11hnn2sEeq8GrEHnCG6cdf8Mr3B6EGXJQtHSibqRmi5sfvevnpV,5496,tangy-ginger-koala,145Fmtub7aLztbRCCpTyLW41dhw7XraGWQXrP7G4jVJjs68bCxE,13.84029007461456,100.45319556421317,8c64a4b8d0dcdff,0.883392333984375,Tambon Bang Krang,Thailand
387,112JZFtsfXSzbnwa1CVY94BwC8vTbBEqVCPE44WGYksycxvPyi92,5496,strong-ash-chinchilla,14AkiBrb8mBhZMkgr9kjYwgWeMQ2KroErCvUKQcJU8kMhaMiyct,43.41562997852334,-80.49429405590283,8c2ab48eed753ff,0.642669677734375,Kitchener,Canada
388,11urhF1Qwwv4dSwrBukUeisrx4CH7FGdEBrJTx1MY28qkhg1C11,5493,clever-garnet-kitten,14RQU6hRRMaTzrLtj98HZ6LUaDQU9kR9nkt15FYLv1NC1BGJ8L3,59.37028726893007,-2.4254301106579352,8c192c381404bff,1.0,Orkney,United Kingdom
389,11AJqAKh8FCp6GJ2dKZ8qjgb4yNjMAmeQaYcLoUNvfVEZveokRz,5492,expert-hickory-sparrow,14o7fLqjCQpUUfPQYCxpgrc2uHpNo2ZNCkXWBGf3UioPq9WnTgp,13.819010876257373,100.53038706502441,8c64a4ba3290dff,0.883392333984375,Khwaeng Bang Sue,Thailand
390,11HGWeUaZum1exvEYN653o49b5xsox1FLzTZLt7gRpziwsoDmBy,5489,fun-mercurial-fox,14388NK15zAXaXaVbxWHttE2F4PcSqwMpQgrVn8jv21oDGPaJz3,26.611134120159548,-81.94182078939522,8c4413394ba4bff,0.398406982421875,Cape Coral,United States
391,112Evm1Ub521LaijGt2uqSpDBoHufErT45ki97qkBYregUaFrGVA,5474,proud-tawny-grasshopper,14rrVWUYbR8k8fxFAoSGLMYR4buuPNZzmHaosm5XfAi3AP17beE,44.877887517813434,20.473521369773145,8c1e1b2a92737ff,1.0,Beograd,Serbia
392,112oi79Z9zD5RTpY6vRpUUocMEGzFdA6o43Lf3htCQJaW4vLRX5P,5473,sweet-raisin-halibut,13XDqUa1ybqjaf7ef1jeoq44fuGMQoGD4WnsUxHFE2zmuE34SgJ,26.647210000158466,-82.01607326114835,8c44133aa58c7ff,0.398406982421875,Cape Coral,United States
393,11ufCNFhbRbo3P6wDBS6tS4Z329fgmUsTd5uf1MKh3Huas1c3Wk,5462,micro-teal-bird,14qMsZfZSAdPHa7ZSHAe5dLBNm1PER1nboEPUs5W9MizNU3LxfA,24.988584606148706,121.43153090698198,8c4ba0a0b8abbff,0.5,Banqiao District,Taiwan
394,11MTQic9KiaL3d2bUdL7n1DRpxJnextUzN2xUKUZGYs2KoBLDAS,5454,winning-ginger-kitten,13cgw9kuthunmQqTsJ8ZeFm9VdYowz9kxJ9DVSKs6WcxsECxuZF,52.380992668548146,4.53768253791364,8c19682c51757ff,0.977996826171875,Zandvoort,Netherlands
395,13dv8r1zbiTwuLbZSDV8xztPakd4ci2qEqfrL1HQrtmPBU1cf25,5445,,,0,0,,0,fail,fail
396,112Lzkamc2JykATUe7Jf1jUgzFixADsPB8at8rCiR3sTbHjNa8fH,5439,droll-green-manatee,13CWcU399sTKfbU25MWwXjvnh3sci9y64NQdVgDyDnnEetfXrxj,44.7887146605442,20.530418186729356,8c1e1b2d3c601ff,1.0,Beograd,Serbia
397,1124r4KApCkPr6aWSV1pYVniDsyrgBssPD3tbM1B432LSAL9NRxX,5436,wobbly-infrared-pony,13oZGv7bbzChNoKwP575HK6Lb7rmdCFiSeKjpiFFc7BFHqdKYHV,24.823192329867155,120.95970144546365,8c4ba0120c825ff,1.0,North District,Taiwan
398,11FATFpCvx9GmEat2zgB48L7do5aFQFwT1nEsnAcsRu5eiV7FHA,5428,hot-golden-fish,14N5QJY1PAo83TUbUUF4nTGxv81Lx3dfxBYTvA1LCrupFL6MgdT,59.36373184540761,-2.426327686158835,8c192c3816b55ff,1.0,Orkney,United Kingdom
399,112ohjFhvP6kiyV1LTjv7nKKEQd9GTmogEBFX3jXTeQQ8hnyHyZy,5426,bubbly-tiger-trout,14VbRoi8h7JmUjjcW9Z1xbZWqVTxoDhokghFxqxPAxznwDkWFNm,13.911661021428639,100.50874152511601,8c64a4b98c1c3ff,0.883392333984375,Tambon Pak Kret,Thailand
400,11vdJgdMPyDv1cv27U8Yoxz6yu8Rf9B37nCCoR9uzTkbekkap38,5423,able-iron-mole,13XtiSYC6S92MtTKBuJJtA4Rfg6umo2nkEfc3noEMwaPtP1wivn,48.86583016919777,2.4080190855649746,8c1fb466ec21dff,0.2830657958984375,Paris,France
401,112PNmMQEtDGBtZ4YWbKauEHN3eugsCRr4BX5k6Pca7HyzRWKYqd,5419,proud-lilac-sidewinder,14ZmFxgWkPPaDXn8sz2VmGtS9vLGujouU9PbMULUCqrA83qofeB,44.80865310081279,20.482832140101678,8c1e1b2d68967ff,0.25640869140625,Beograd,Serbia
402,11TPsZvMyvunAeYaUo1pi4TRAnQbKL9wzno9fh4ivWZYaaihyfe,5410,happy-berry-lynx,13px7CfSQ7WKaC5DyQN5zd3LQtfxP9b52jgevSDjjFaq7DWgF34,26.60150392132794,-81.97517521076557,8c44133b11987ff,0.396820068359375,Cape Coral,United States
403,112aeLh3FqiJjzsiCcfTnv8mjvGs4Y31hp7BYCXREu6FFYQLUK4H,5401,agreeable-sangria-skunk,14eB1hxg7kEci9h5gEihCi28L9cTqm7aY5XGQNkWFmjK4XbK8p5,48.81967170195592,2.389031512743682,8c1fb464042cdff,0.2830657958984375,Ivry-sur-Seine,France
404,112tADptY2GzCTEVFZiKGkCtMjGgXb7eRdvAFX81SHU77VGMFSBp,5396,bright-shadow-crow,13v4RxHb4Us9oPs7bo2zd4hULb1aUpwoPNqh5jgby4RQSVF1dK6,44.80701388122537,20.45098440193982,8c1e1b28bc4cdff,0.302337646484375,Beograd,Serbia
405,113zMbJYs82yjp1VYWcTEdEefR8GLKyNRQNqLPp71z5C5wnae7v,5384,powerful-taupe-starfish,13eLmgwf9Pp2ri52moQ1Ke6vmZJKNo5qXCMtFsQ5D5MKBUEtdwB,46.48139633084769,11.356807453589488,8c1f8b50c5a3bff,1.0,Bolzano,Italy
406,11E1PhRFHna1PmoQkjGAGvdJTdNzV1mmFNDy45tu8eSQdTgPyhY,5379,cheesy-vanilla-rook,14o7fLqjCQpUUfPQYCxpgrc2uHpNo2ZNCkXWBGf3UioPq9WnTgp,13.82840351263295,100.52770975444002,8c64a4b85c66dff,0.883392333984375,Khwaeng Wong Sawang,Thailand
407,11bpi8N7SzVVTz1aCKrzyLM4kXRsmEjGtWUaHgjcvsAHfBTgH2K,5376,early-cider-kangaroo,12xX7Ea8qxfp3QprzaRyPjQU2mUwDawLKD1jAMssewMUXD93FZR,56.875508247104364,14.798650181074564,8c1f2c76525d3ff,1.0,Söder-Öster,Sweden
408,112bexr3KKe3e6fNd12oftKXZ4bV77H7SSVm1CSNguNaZywHXtpb,5367,amusing-carob-kookaburra,13JqjzEThX67hGtYDZVQKjYX2HaBKJ2ZeSLrezEcN478mX6Lctz,50.65838688414855,3.076394213976949,8c194d2913267ff,1.0,La Madeleine,France
409,112SCLtX1pAsWnrSuNijLdDnYdXcpQdwN9CFaY17KmLc1izJ6Lbw,5358,proud-wintergreen-seahorse,14MQuYZp1s2ys4bnpQS3g5UtwyWCWW1EuHcxoGApRPe7JXx7h9D,50.57978701077423,8.673602615804095,8c1fac4702b35ff,0.6756744384765625,Gießen,Germany
410,116G1wuAESm6Zh2TAMoyxZgbnJDTMVEsv9zbcaLU9v9cUnunxcY,5349,itchy-viridian-puppy,13v4M1ofJFCwdQA5wL6ivJDq2CAA58uPTHBbob3CQfySDvi8MMf,37.39870629928254,-122.0595759654814,8c28347093313ff,0.227935791015625,Mountain View,United States
411,11CVgDw3tfbaCaTac9iWsWURfZUB4MfFNLdHRe4RiRqPCMSnVoe,5347,ripe-porcelain-carp,14oZhkXK3PN4ixa5NSL22WZrXkZg3na5fjb9YkT26mwKfG6EXjv,52.493174734417096,4.586021437095292,8c196820381b3ff,0.4889984130859375,Wijk aan Zee,Netherlands
412,112B4LL88WSTF6gJ2jwcpLFRybSSYtTjyvuHfZLgGRqenDdJAUDk,5345,interesting-plastic-anteater,1312LRFSKLwTsuE1QdZ5ZX9pTMXRgqKkRRcQXMQYpoiNXnNDZWq,44.80384144439022,20.46617380808199,8c1e1b28b303dff,0.725616455078125,Beograd,Serbia
413,112LV3PbZGGX79PNp2Hma9JWrjpSidnfaf5p9WC2pqZSCqTCrTHz,5345,brilliant-lime-worm,13CFBccZEq6PWdhV6nWVczJA8Rdw68RShcLLAUMEb7uSoCN44vB,46.4287745167155,11.33325010085652,8c1f8b5180691ff,1.0,Laives,Italy
414,11225oQwcWc4GXhyehAY5G7JBsZbTqYSzACi3WoYnBRaM6pMuQjP,5343,noisy-sky-mallard,13LeaA7Rb8FwSmjjiyZY7RhVVB8moCJt6495PoKBteXuCZjgi22,52.40610337791783,4.7387065422523715,8c1968240a96bff,0.977996826171875,Amsterdam,Netherlands
415,112eatdbfaMtQdL9UUVs5GFTLcQUWH2nf2uYdJvenxG9FDK3XfWS,5338,brave-cherry-carp,14pcrr8VsGC9kUZhUKA48bA6PeRMjd3ieffhY1wAobHgxJmrG14,37.90216686524804,23.770556362508678,8c1eda662c6d1ff,0.8787384033203125,Glifada,Greece
416,112pvRBs3xwNx91V6b89LqThTBfNx1gnW7ccadZ6HKFp2oMa9UhD,5329,dizzy-olive-cuckoo,13G5GaoevYh8vyQGWD1BnJ17PrvJnm2w6TGPmvj9JCBBiGzFXzY,27.46493202481598,-109.93489119835601,8c4808693894dff,1.0,Ciudad Obregón,Mexico
417,112i6iC7sJhYD2ADBBkip3uNm9nd6jHrRQjWsWcgaLgVzomaLLiR,5328,crazy-grey-lark,14N4fw9F4MKTKyQBzKe4eyrwqCuviTPYawzX3q6nHs2FnrhvWNZ,48.820002126213325,2.350124521719985,8c1fb4673271dff,0.2419281005859375,Paris,France
418,11pKDXgS4rqhEY8WsYQqyukz97mpZgTy5svoKKafiZN5b5ggQKG,5326,joyful-honey-canary,13x9nvH6K35qaFmHiAT2QEKvWDHqGxvT2KFtfikfuBvqXqFoYak,52.52046101762492,4.97358097908296,8c1969d9a32adff,0.3333282470703125,Purmerend,Netherlands
419,112LK3M7HBV54UZdCDt6KpyBgW7n27zggcnSiPmWUzRzo2pBiRq6,5290,hidden-paisley-orangutan,14Zpu53NMBPM2m5m1ds4KTzFykpZYYtpQ4qM7rc3AvPLCeKgk3U,51.88239349076443,4.602034688948628,8c196bb4ed0c9ff,0.2789459228515625,Ridderkerk,Netherlands
420,112YPWekfqaKi5mmHVaB8R9qGS21g7sJ5KC58uVkAU5nQ4Qd3f2A,5287,harsh-shamrock-grasshopper,14rnTQwWgSyoPPbu5A4LDNE6s6cvn6cJVZpJTDz4sZR2CFSez7d,26.622201617827304,-81.97746092123548,8c4413386b901ff,0.1992034912109375,Cape Coral,United States
421,1182gY1SAseqsTB5oxJTmo3JoT2XW1N5v9eCVHtUNSngRTMQbNm,5285,oblong-gunmetal-moose,13DsREppukkZHXZvVLaagZMtgSw3Pb1eN3gqN5qghQedk1WqMyj,43.13379428753592,-70.83561939283418,8c2a30c232657ff,1.0,Dover,United States
422,112mS3ib7z1k6pNWuuTvkG2EjydYmSYZ1GUC1SDsq8Pbf8NxZeuA,5283,macho-lemon-quail,13mejWr2759YejnganxKjEBXLR9xaYAwPceCHSG2WHcZdr84yBK,34.15389872756007,-118.74457701146892,8c29a18464309ff,0.4519805908203125,Agoura Hills,United States
423,1127dYrd53X7n3B2LiPXaWVc5BRb6wkQRpvbe9722YWJmN4Mcnh5,5283,gorgeous-steel-goldfish,13QiXnp2dXy4sZXjY3nEu4fM4bg9UnZAcHRpbq29D7oeN6BST7y,33.983528262037034,-118.22497500294425,8c29a56deb919ff,0.25128173828125,Huntington Park,United States
424,11aB4jQcibFuLxg1S6XJ83SSq94PuR2ngQKL2t32QDCeASzNNZT,5265,nice-cinnabar-huskie,14jrxAyCpU6k72cPnGGLvfEtsUYJiJzLYRaf9GLHoezrz47ocLn,55.59865189354088,12.985127528936188,8c1f05bb1a555ff,0.11395263671875,Malmö,Sweden
425,112PWsTBdEAJfwVhfgzoB1gVYyxS3VsQawyDTCzicK2yfaWnc7vA,5248,keen-mocha-raccoon,13P1SWJTFUBkTxrxc3fwwY6JnjMmQEpCZ3PvNYiTiuavujniNGG,37.398946310597395,-122.06259496170244,8c2834709ada3ff,0.121368408203125,Mountain View,United States
426,112vcN2Gkk9MZSQsoCYLQQ4QyRY6M1da91G1Di6PYqmQDn2A7mir,5245,sleepy-gunmetal-lobster,13x9nvH6K35qaFmHiAT2QEKvWDHqGxvT2KFtfikfuBvqXqFoYak,52.568549871729644,4.698105231440298,8c196830b3915ff,0.977996826171875,Limmen,Netherlands
427,11UGWLsxvwvm3uG6JoSoyPN3PwM2Uxo3hVBh2Q2rUCGGmJRycVU,5228,brave-hotpink-opossum,13CuAhpUKYMb1A6CXiiHF6KxK2nh33oK1kaT3BzMxJniFDzrG5y,37.987032807393085,23.73873307385922,8c1eda74ed29dff,0.468658447265625,Athina,Greece
428,11NehDRt4mncCU7F65feAm3yChntfyLokgDxvyysbKizh2aCuVf,5211,jumpy-fleece-skunk,13o959QF7iYYLGpMoyEsUxK88PYsuojg4ioWQrYyLezmL7g76AH,26.573703616204856,-82.02485579562735,8c44133a47287ff,0.398406982421875,Cape Coral,United States
429,11AvEsMZnhD3sWA5fj7wfscTiYA9speev4Lebj6zsZ5jkws1ZxJ,5191,tart-rainbow-goldfish,13pRaT3U4csULqPzzKE1ja1EeLGF4o7H5DvZUTnzGTp4TcqQN4J,46.92872999968459,-114.07358281115712,8c28985000107ff,1.0,Missoula,United States
430,112RFkv5AWV3dUEfpRktxitotbVssTB4MoW9EvznzuqFxkwohX86,5187,stable-brunette-buffalo,13wBDTj7NfaUzuYVJboNi1jCxtYh6CQm2eD2ncEFUQd32fCyGba,44.27684289137637,-88.39004033765909,8c275cb316e07ff,0.7873992919921875,Appleton,United States
431,112o9Y1KLJfKyAskcqHkxCuBGXkpom4L5re1Dk5iYyxbiFZSZvHV,5181,curly-orange-mongoose,14m6FD4373DkXZE3UVW3FRj9djiSpd7T6yj7Zu4uxCcJQQm9GEn,24.96854892113519,121.22195726202877,8c4ba0b8188b3ff,0.5555572509765625,Zhongli District,Taiwan
432,112AbxUQavjt8Pf5Bunkp1exG3MfPWSKyFHhrmVVb9HaRC3BYYnC,5169,suave-wooden-tarantula,14UtdvtmNRe1ZVJgfbKoauCAU8BGBKJvFNBzMmtoC9rCUZ1Ht2G,33.956740214924466,-116.47267946913928,8c29a62c98407ff,1.0,Desert Hot Springs,United States
433,11v5XF9NkSJh9wTKJZFMuoaR8tTuAYUQ7rgGS7gy92tSZMdixUo,5168,cheery-blush-pike,13oE4QsfY3rT2zdN5bahkyP1DJDMRzX1yG7KFxDbUrtRmNgzNGx,44.28834916291801,-88.34886517931737,8c275cb220463ff,0.7873992919921875,Little Chute,United States
434,11ecpFRuU4aibqMRy8BXDE1wxbSGpEKUWTtXD7TjMWwLTHUx5fo,5159,shaggy-sepia-millipede,136VtndJzCM2YtzfLwPiQr6AUjjqNMeVjq3jdSbGnzBbPsRpMP8,39.14635833732403,-86.53365976315175,8c266c59e2cd5ff,0.9803924560546875,Bloomington,United States
435,1126v9dJvG6eAze3JZoDybhGmodkeya9BF3fatoHgKwPeRkSYymd,5157,tiny-aegean-gerbil,14Hc9GTXmTyz8QLSa7AK4uoNV3UEFVG9dn1MbbNLtmbsN7jfdUS,38.06439218407822,23.856352105811034,8c1eda39bb5b1ff,1.0,Nea Penteli,Greece
436,112V5yLdU79MpN94ExRHS9HhA9BrMPdxEMP9Zi3UHfwpDxeD3mK,5137,merry-white-platypus,13bvk38UGXG6K7AaRyjBTYsMSkZAQ4hfvfW2qVDMX5VvrTH27KB,52.4013920465882,4.752378189521077,8c1968241d0d1ff,0.977996826171875,Amsterdam,Netherlands
437,11xuNn7kFnci43LzT61R2Gq6mvDWn8jumiZQELFFLeSk1W8FS8F,5130,shallow-hemp-leopard,13arjHKWCCGH4UHFtED46BK3LteUaQAoxvWKfM6c7n9KxWQW8HS,45.69438287746007,21.244749816949206,8c1ee692656ebff,1.0,Giroc,Romania
438,11meQpUdoby7LLymN6sXarCT9Cy85Lj2z1ZFZJPAf8qkqH3YfPB,5125,dizzy-zinc-crow,14Yjt82UXaih67hmkRwr4NcbizUDXfhYeMr6v3AaW262hWvUT1k,38.03454920932866,23.815795020332942,8c1eda2b45129ff,0.86956787109375,Marousi,Greece
439,11UsBEm6dduknD3yEr9ucdemNcMbnXGqgSPPRhperzNnZy9KrMg,5111,obedient-chili-wallaby,14HAuvXJppcT7oBsGxxyCEgL8RCGtL6pBmozfMKas9A99Hc4LcJ,26.63476981697453,-81.94388956394191,8c44133957811ff,0.396820068359375,Cape Coral,United States
440,1163pTQDus4LVyjGcHsNpUno8cDDcJRqkPpwpNptvQiM2EwGFMw,5093,fluffy-cornflower-opossum,13YpSXesqTgpbm3zHQb6dXfUvr3WHY1jxniyHFtHoP5D1DHBVLW,-28.162222238226473,153.4585642728388,8cbeab3ada923ff,1.0,Currumbin Waters,Australia
441,112MVsMd3YfDP88tFQiAFEdLAFe33jv82Ash543nyeGMFGQor34Y,5077,fluffy-bronze-goblin,14eaDQmJtKyrsgH7VVcakbyjvK7dFBeLACh7iUk7PgjtbwrxFFN,50.58803636117651,8.675182891493712,8c1fac470af1dff,0.6756744384765625,Gießen,Germany
442,112pMXJVuBHNfjUsFyJUnhi5zATaudmRYgrvUDzfL6ibQY9i84Bp,5074,warm-aqua-lemur,13AUknSNhwCB2foHHXnyVvka3fFEv8irkZyeKecuuHPn986Jc4w,47.90290439116981,11.438285444821846,8c1f88b541669ff,1.0,Wolfratshausen,Germany
443,112iKz6n5MBfoxTtEVW8kXmuRqAg7jx1R1hCeNTcegm26pmziZuV,5070,innocent-tin-elk,13bjZai9gzuLBjorTpaGDwtTs2PVmynwjh3YVnCT2sMQHyZyPAc,59.228821504138324,18.199045486501273,8c088669d5235ff,0.465545654296875,Trollbäcken,Sweden
444,11igH4aD8jCrevUpJ2Y92MMo73svctxGYLAc8DVoMjZcg6LWrp6,5069,fresh-lipstick-rabbit,13czsAmBnjA2BuLLkbeJLJcKCSzAcwh1L8iprv5Bot4kYBn5YoP,45.21912562138882,19.83306555417341,8c1e1b10e58ebff,0.4990081787109375,Sremska Kamenica,Serbia
445,11fQKfXrS3vA8JN9os39q3jDsVGY2h6fuw55LRbxPs5mzGh2nui,5057,ancient-pear-hyena,14f2frf32J57saD6hXxSCCSGmG5CWuPktxbo9ZkExyBumoj1EZf,55.68899686649278,13.181232180581372,8c1f05b03376bff,1.0,Klostergården,Sweden
446,11USxBbAsgcvL7PqZtRmpxBRm2PCsRNYbWqL2GBvKauTzRvsKtF,5052,muscular-pear-meerkat,12yq9BwPaHyB3XXrwnqSUhLkCZ7CMVvZ83PtbK2JTkbA7cidz9W,43.836509714002446,-79.31008001571098,8c2b9bd76363bff,0.051849365234375,Markham,Canada
447,11QyxqLLR9b2W2CPQSHBTtSoT5NjxzjHPM1Gr6sGZBUxQK5KiYv,5051,exotic-coral-parrot,13HSyfv6QyqbEJrUySAto9VhDxfUKcq3feEec9osjKEo7W1cpyz,52.549171627626464,4.681154966169684,8c19682257429ff,0.977996826171875,Castricum,Netherlands
448,112ivPfNJTzgWzEah2eCZ96Uu7GMLhhDuo2zXG855ipKu5NK4Fpe,5045,able-gunmetal-whale,13mszVFvtnHG3YaepW3WBF4oCuJBpc4x889tpCFJgvE4vQBrWTG,34.13761720446648,-118.83051628915094,8c29a186e15edff,0.5423736572265625,Westlake Village,United States
449,1193A8CKZHSnrNZPhK1TjqtQiFM5j5bg6gZfbqmVPH9nLYALJe1,5026,sour-maroon-haddock,14Tv4JUEshu8pE5LqTCmNasVKcAMTjMoFUyEUVvu933rWf5AhSy,44.830303985398906,20.410894016385082,8c1e1b28e85a9ff,0.609527587890625,Belgrade,Serbia
450,112UFhHLKCDybTytZn4xB6LXuMLzAbtA2ov3ngytvX8q1Chtiidc,5026,faint-malachite-seahorse,14LLPRRsHn3AFZMY6jh7V33ZyFfBkbxcdpBoKaZU5V47dJMyc3c,26.581319985514664,-82.001071615032,8c44133a66353ff,0.396820068359375,Cape Coral,United States
451,118XgqoThvpded21h2VekiDAf542byk9F3QSffox2g9JjDFPfY5,5016,,,0,0,,0,fail,fail
452,11vgVy8wMxP8KwzeQxEF1hGEoG7CGNKdTGQFHHDh1gAyz5LxK6F,5014,dry-juniper-guppy,12wsSLV6Q27MxEvzFFpMmZkAYjMXSA81Bfcbyk6VCxcZdJhELig,26.67329723852924,-81.95879221136575,8c441339c75cbff,0.398406982421875,Cape Coral,United States
453,112csqtmvoe7wFL2UaAwAno9t7eUNWaM4xHNb4WytpCxMXWtNdfD,5007,agreeable-maroon-carp,14tLEvoBAB6BF1t5rMWVUaQV3Pj6B54wRBuFKFCcZ9mg58YRzcJ,13.826154785538112,100.60718733029626,8c64a4bb4b9a5ff,0.883392333984375,Khwaeng Chorakhe Bua,Thailand
454,113gEaJ6HLpf96geHRjpPmFWvsQq2YfdDE5PeN99czebCACPeFg,5006,curly-beige-crane,13hbYGrtuCM3jrkEVYojknWhsPKPaQgdzp1afcurpkKTMwmywEH,51.90141810625847,4.484474943378419,8c196bb523551ff,0.402069091796875,Rotterdam,Netherlands
455,11eZDv5phBxSt6wK4Y4bpUnUFp5DqAzAaraUV9HTjavNUtZBve8,5005,refined-honeysuckle-ferret,13UNTLqZxTWATTy4ZVX8KBbX1fQ3mbnBwUjnWguctGi7fiUw62C,44.72623776294686,7.825125528648897,8c1f9aa05c8e1ff,1.0,Bandito,Italy
456,112axqbzjztykMeKRRQK9rWJPSkaxkMhQkhMSwdGWU4Qz1yF1bZ9,5002,salty-zinc-mockingbird,14c7dT9DKKeRCLwZUoMwVPVGkMB9gGoodQtzcadiqKEdRVFTUVW,13.802763593394875,100.45809692229402,8c64a4ba966c3ff,0.883392333984375,Tambon Maha Sawat,Thailand
457,112VTs5gt2nQnFdPbrt4LwgNBGgXs9tDPsYXXvsoauojDzdCrmLr,4999,dandy-goldenrod-antelope,13sc9ohmypD2isEyjWNSX5SHkwyBY8yaofa8JbNSv7ajgaof61t,44.27473396589668,-88.36349928434231,8c275cb04c519ff,0.7873992919921875,Appleton,United States
458,112rjZEWHH2tTMw7pRQxqZmoz7BxDajpVpfQWvvt2VGkspGYqHFy,4997,happy-stone-goldfish,13nTYiAtLyV6EXV6WAEEmPsKCqUHxPUyer7XfSvtxWk9gBNyQ8U,26.620581620816747,-82.00458205816385,8c4413384a465ff,0.398406982421875,Cape Coral,United States
459,11NzePo4Es3wrDnuc8KWJexa6WsUqA1evdpp6e8JdrJg4LPCySM,4982,quick-myrtle-snake,14Qsap4mytH6E97Edoq3Wz76CiXtnfXFjn6ABtdsSYt3t34Bqmy,42.005726290558236,-88.17468956880961,8c27592334f55ff,0.5574951171875,Streamwood,United States
460,1122xR7cSuP384TpQGuKTqDDr7XZoD4nrdAWhfwuAmDydrKGJ5jU,4976,spicy-tan-panda,14N4fw9F4MKTKyQBzKe4eyrwqCuviTPYawzX3q6nHs2FnrhvWNZ,48.81821364609416,2.3316774550654316,8c1fb467354b9ff,0.2419281005859375,Montrouge,France
461,112STSCgKxxYS6iafeoKbDzA9kiBMEvcgWJEaVchtaEJMKF7ZvDr,4962,tricky-pickle-orca,13xsmofbGWu55fdnc4n2aZBNJj1TgcW5aV44wjkUPcMLrm5u4YF,48.95548381502628,2.538204940409906,8c1fb428c7311ff,1.0,Villepinte,France
462,112HjLHUeBYqYwVEzxbnLfFgCK74BJu5WWqKnZ16dhvgTWmQawd9,4954,droll-glass-toad,13kVQUUzgeiux3f6E4GtZeFURD2WGRoT1iNptpkpHKYrdVKkQuS,45.397184382225085,-122.70672210950468,8c28f012a1981ff,0.1828765869140625,Lake Oswego,United States
463,11QDXCr8TV6wRy7sfTqZgEbUkoFDCysyxM9LuoZxGWeS7JVsBqE,4953,micro-quartz-sawfish,14UtdvtmNRe1ZVJgfbKoauCAU8BGBKJvFNBzMmtoC9rCUZ1Ht2G,33.9453597803315,-116.50092090696799,8c29a05b2b235ff,0.8333282470703125,Desert Hot Springs,United States
464,11HPJCzNM55VMi2UgTH4i6gXazEiEwSau1ApesgFVEVTq2rLqkk,4952,faithful-goldenrod-wolf,14iH3MGC8j2zN2dzEXVAua5QyxTqaqj235A9ZRZhxfvoTtbYARe,-34.85617577223391,138.5420711737809,8cb91680b1b1bff,0.625,Athol Park,Australia
465,112b7zyL3r5RRoNk6feBbEfdQAaUMHTKujn92nTPMygX9uytVKyo,4935,colossal-violet-dolphin,137mYSb9pmdCRsZ3eZRgjbRvRNvS8JNMtXui9jugfXtcFDQJAVF,42.037619325230686,-88.15488452540623,8c2759230d2cbff,0.5574951171875,Streamwood,United States
466,112RfSaPMY5ASUeqVfsi25t5SegJ7ze9FA5eVUzfNrskwpRQpGu2,4927,atomic-stone-mantis,14ioShUVBuAR6Rvb5YfmLwGtkYeK7Wbb8k3GtqwtNRYVjoriuML,26.651978233944597,-82.00987670046226,8c4413381bb61ff,0.398406982421875,Cape Coral,United States
467,112paJ2hNkcuz9sJ5rCkSRC4PiL3GXFBfBnxsCwDMXkb6rznNDk8,4925,rare-saffron-tortoise,13sFYqBrx778ZuZ6jGQnPm9b9eftH8C4eHtMU84iUJbgqURjEAk,26.552997655224473,-81.97259668433936,8c441305a66cdff,0.83892822265625,Cape Coral,United States
468,1127GkjATeXbhS8Zyk6NwKvxTpweYNsbw7j6iVJF3gaYNqWb7zuc,4922,joyous-flaxen-newt,14ZjMRC31bdyTWwi4kLu7VKnATDH8gi3PdKGYNztoYYM81BDu57,50.428552927781226,30.58526371338404,8c1e63b1254cbff,1.0,Київ,Ukraine
469,112neYy8Wj2oy6EmjiaCpkqZYP617pW3fE3EjWidJ8GG2EVJL4Sk,4914,zealous-crepe-wolf,13HAZzhanRWkLLvjsGfhX8URQvwfC6U3xHntW92oo3W7ErTqRvx,13.808449901907297,100.52293782158293,8c64a4baec1ebff,0.883392333984375,Khwaeng Bang Sue,Thailand
470,11zD49XfFCKTGKkqv7L6FUxuCRemxpcYj189yTS87RR1hgDW1eD,4912,spare-myrtle-koala,14Jc4Xm6Ta6FQ6C32SFyCgwnrfTR5hHjr6kpLtL9Wwatufyuqwi,44.9295488617614,-89.21168657962957,8c2751b6d4201ff,1.0,Birnamwood,United States
471,1126f1fNA5zPFtDa13sKUaL3JvvQ4wRZj9tTC2AZ2YfmefKfQk25,4901,refined-hemp-moose,14jjcjfvhUjvFdKhp5bfiHwbJuwBFKwPw2P49V3rNhmc4mjiGHv,26.56238656742117,-82.00319931024815,8c441305969c1ff,0.83892822265625,Cape Coral,United States
472,1181CC2mt6gPfKsLwFfoLQoRnM4nVj7oHsR13bPugqFFVSP1RuL,4895,nutty-merlot-pony,14bcb4sfhhYsa7fSBUPAgnDZKSQEQXqVmUTGiyn3hrzsxB9vBxm,44.809747637999415,20.50774748285165,8c1e1b2d0d047ff,1.0,Beograd,Serbia
473,11Q9mrNjaMton4xZf8r71yVZKTz5s92ysu5phGXQ4qn34mgGoZw,4880,merry-vanilla-marmot,143pTYJHHpJPBaNxYr5K5v8S2fFRs3fp6fDjb6ZdsjtSTANALMW,52.50072282685629,4.9515901821092605,8c1969cb476cdff,0.634918212890625,Purmerend,Netherlands
474,112eYMc2WsanS1Cjk7guhbgZgwKKM14MZwh4NQAEfWr2fxkeDRRG,4876,stale-pewter-bee,13XeEnCv8waneYvutzWxBn914tgjy5iQj4Bkw7Sz6UMjSYffHYd,50.37681933557316,30.53996539606273,8c1e63b842a31ff,1.0,Kyiv,Ukraine
475,11r1gM5GSdYGbPwePG2e8EPT7VaM3JbUT15hAh9wPVustRAtATf,4875,muscular-pewter-whale,13DvKHmreqn3jcC22d4TUiE6G4znqbMS2dZMBv1wU4H9r1GzuSf,50.581915460215775,8.663748858793758,8c1fac4700aa9ff,0.6756744384765625,Gießen,Germany
476,112LwgE5UvdbRMDZvmZgQkx9smBgcjpx2aVQyUmqv7bo93Zyz3P,4871,skinny-sage-starling,14VbRoi8h7JmUjjcW9Z1xbZWqVTxoDhokghFxqxPAxznwDkWFNm,13.918366524369834,100.50028139852294,8c64a4b984483ff,0.883392333984375,Tambon Pak Kret,Thailand
477,112ZpKNFpWmmfBBmJHPPqKEtTLCVY7pF7ycTxiYQHGcWSEK5cZHB,4869,petite-pistachio-owl,13qiSeSHEUtahEvggzfSoY3GtpftUqSAsLBcuqu8MMQiZj7jj9y,55.59591157227605,12.990867386342495,8c1f05b84ca69ff,0.2212066650390625,Malmö,Sweden
478,112jKCJMBVp6jno9VoaAV48sJoTh42JHW6BbsQzDWDvYJrzTrsFF,4869,future-marmalade-canary,13zjsrN7BAom45N7DXornx7htbMgJwa6azn4G6UcesgASrsTomv,37.79859115791899,-122.40089667732578,8c283080c954bff,0.4767608642578125,San Francisco,United States
479,112jRULxxJt4airjbM1ABhS3KR3gMSdZXndJKeJDYhbamNFQDW3E,4845,magic-peach-parrot,14AhA8WAMPrU2MvSC4VTuaRLYuenmD7RybStVPRoxv3C37agLBw,48.86344298999023,2.6920125342241112,8c1fb09296a61ff,1.0,Gouvernes,France
