rank,hotspot address,packet count,name,owner,lat,lng,location,reward scale,city,country
1,112qawmyDWfW13Pb1eoLstThwzbnAPCwEHtLd6gTYS2fXRtJwm8J,201368,active-navy-poodle,13zqTVctLDCxHTawLH4fXPJrdYZQKNDJqcbsYEtAugE6FNGGBmJ,39.952768008733294,-75.22122271442674,8c2aacb255a45ff,0.2879638671875,Philadelphia,United States
2,11AGidfnmK5uXaFC3DqRYBoHC8QCStvgyEQcJSAyy1RiE5TTuZN,178267,steep-ceramic-starfish,14VhXhKG8Rj5QRJ3mUx6rHP7DbXPYirCyMehv2mdUs9hioAkz5M,52.579421140322815,7.748908478145818,8c1f10db48cb1ff,1.0,Bippen,Germany
3,112S4rCqki8Z6MdnsRUj26gPWmrMbTfX3NhzAg3R2RsSFhTmd4wL,177113,happy-scarlet-sheep,13g9XtVkKrbnJzKTqwCmuSedPHdtN1KjeVE8AoD7yQZvfJCeGab,25.068645854962426,-77.30785049817106,8c44b568d421dff,1.0,Nassau,The Bahamas
4,11sXPPXhjkk6pNFCLUUAsKoPj7iWFp49visqUFoN3p2631M2Ddu,157980,rare-burlap-peacock,14Dp2pi2T9ZEmVb2XRJd1tpPU6AwjneGWrNqNj96GGgPq8CKS8u,39.95121175292371,-75.20873683845929,8c2aacb25c6b7ff,0.3603973388671875,Philadelphia,United States
5,112ePoj4gbyfoVCNXqDkiVsPfiv2FSAy9k9UdgTEWZeJhXQMnWtn,155591,narrow-cherry-bee,13Xgcb5kgArEY2rewK7H2oXvJ37JdC9JU6JEyN43A3ddY8Y4h7j,39.94951180035381,-75.2154636529079,8c2aacb25544bff,0.2883148193359375,Philadelphia,United States
6,112DCTVEbFi8azQ2KmhSDW2UqRM2ijmiMWKJptnhhPEk3uXvwLyK,147147,proud-clay-aardvark,14X1W4KJr9QyHuqu6myDBpAdd6ouQbPYL3B4rmJvJjd2GKkUdBj,44.73319908910226,-68.82463728921645,8c2b1a8c658cbff,0.5,Orrington,United States
7,11aiZLzwoEjUu6MjN32aVnG1xm658XUFNxUFHrn18XZdiWTeLmF,144385,dapper-fuchsia-rattlesnake,13EwKZK9aYWKHHTUEdbHjJcy9wosZjMBRp1vDWmPKA7pnh3dfu9,44.79574878639069,-68.85049458591673,8c2b1a88d990dff,1.0,Hermon,United States
8,11kzHgDkiGfCiX96fWz6riNGxjCCXy6bVvyn4SDwzjzwMXNhndU,140117,tall-blonde-condor,14X1W4KJr9QyHuqu6myDBpAdd6ouQbPYL3B4rmJvJjd2GKkUdBj,44.73210838034719,-68.823534343445,8c2b1a8c64315ff,0.5,Orrington,United States
9,112Rw3yCm72VHCTmatEnudyYEXkjEnqAA4VbZLzUB3ncvPQskeXn,136636,custom-carbon-ram,13pfnRqbcDS8Kj4qRjt2ckw86aAXrz15tyR75HotCLQte5aj9Nw,39.95211694377586,-75.20883853602479,8c2aacb25c6e5ff,0.3603973388671875,Philadelphia,United States
10,112r3GQZu7zNsLzSCnQRgRay6zmZqGHYGioM6NBevKxUUSbjj4Ht,134712,kind-seafoam-yak,13CCoKgQmcrPZvDbAZy5dFn6UHio6Wv6gPzqsKZvRqWoYn21GkR,39.950280854744044,-75.21633065076755,8c2aacb255701ff,0.2896575927734375,Philadelphia,United States
11,112XzBTSuQrxbNsDLfcmGBcZHKUGNnmUFfPffctbTkXp5MtxstJi,100398,droll-lilac-kangaroo,13GRLyQq2foF4Df5CFBUbzaYDUDuyHPPU8DnveLKt52B7B9wazF,39.9452780940302,-75.21991818026564,8c2aacb257b41ff,0.35906982421875,Philadelphia,United States
12,13vXww4VsEX3QGfm1wVgZ3R3WbL6TuSYD1HHnJfXeRj8zCXNVg7,94531,zesty-burlap-bat,13g9XtVkKrbnJzKTqwCmuSedPHdtN1KjeVE8AoD7yQZvfJCeGab,25.046996129224468,-77.32620411701448,8c44b56abbb0dff,,Nassau,The Bahamas
13,11m1iQG5MnXgWj1Cd4BeqgdGLTcpLsYAPL1MPuDbkbLpNZM9Nje,90149,mythical-tortilla-hawk,14gm5grwHv2tPtAUYbt6FS64EEB4d1XHHB4JgaJLoUvRYFR3JEb,32.882048112361744,-117.2334973273644,8c29a401d60ebff,0.5839385986328125,San Diego,United States
14,112L2kWX287FTGy3MSEXEb4sQtTCXo95krto3s52VyZbFJXMdU9g,81407,orbiting-citron-nightingale,13bP6voUKS7rTVkAjScNKfKN8a2Xwca2bTbv7PsokcWEnZgKcgx,39.94987657665517,-75.20869326518475,8c2aacb251155ff,0.4805145263671875,Philadelphia,United States
15,112PR8ZU9qaF8Dy11FRTzYxQAtXtspiRLvc4rLtGH73xYAgSGhxo,78654,genuine-lead-turkey,13oBvk7EmZ5nMckycXRoBrR7ymXeFWn86gFhso14QnJWmB8HJQG,39.94697303252702,-75.22454331513164,8c2aacb20b251ff,0.438201904296875,Philadelphia,United States
16,11WMfJcu4eeKfvf62SSqL6SEP4ygZ5iWUuCodTDN55TniZfUpzr,78643,spicy-blush-shark,14f8BdJB9ZDKHzaNWjfzPvaZvYQijC5kBUAT52uAPGB4VqRLdDf,39.94847391187246,-75.20761333784515,8c2aacb2510a9ff,0.4805145263671875,Philadelphia,United States
17,112p4wXeupihW5BeDXpLAYGmjpqjXcfej1dXoxeTrPra7aj6L5gn,72286,boxy-ceramic-chameleon,134dGZevperxSe45PsxMG4R7PfgmhJuQc2aLfbzvW3gbgTKJARv,37.78500276581598,-122.40045446304717,8c283082aab09ff,0.1010589599609375,San Francisco,United States
18,117m7jpxd8tuSDUPJGyYVPVbvhA3gmc5TTahEhviYFb5SurnAqF,64473,mean-laurel-falcon,13pfnRqbcDS8Kj4qRjt2ckw86aAXrz15tyR75HotCLQte5aj9Nw,39.954531161387884,-75.22546602270049,8c2aacb242d59ff,0.661163330078125,Philadelphia,United States
19,11zySEn2ayYoKHfnxCs3mC9xuzcKhaBkJayomp4G1eQ2aQhNqAy,62622,fresh-saffron-sawfish,134XMAwpF5H7ueJZKmHp6STQ4udr532T6ANVLBzmCgpzQAxwpp9,39.9444223669243,-75.21010245632823,8c2aacb250e17ff,0.7241363525390625,Philadelphia,United States
20,112kUawt9GpKWqYja6sSrFFCZHUCgsgAjn1F9atpNzQdfnJ5in8D,61363,long-butter-porcupine,13SHYpyCK79Yh33TXKyTmN1AETR5V9CnLXVWbP3hNr8UZcEwjre,25.557989355286047,-80.45166941015476,8c44a195c0c05ff,0.65673828125,Miami,United States
21,112qKu8ozaJcFeuhoqQgDNPXACTfi6vSeQZNvrRQhAVja5vA12ur,61270,shiny-mulberry-worm,14Y2o9cMKEhTJ87G19Sp4occBrQxVdE3mJM3xMiJEj1auLF3Qga,41.50766671984868,-122.36671611958315,8c28110f5d443ff,0.3333282470703125,Weed,United States
22,112ayhMj8FesfNPLMaaWCZmHSu8HWsaG8vY3Foh4wnqEVNsfuzDh,61098,obedient-aquamarine-cuckoo,14Y2o9cMKEhTJ87G19Sp4occBrQxVdE3mJM3xMiJEj1auLF3Qga,41.507716409329696,-122.36649584489761,8c28110f5d447ff,0.3333282470703125,Weed,United States
23,11tkAbgqHU2qU7GTiuwjggEDaYsmRDsbPsJjw5ezsu54coQE7Cu,60992,fancy-fossilized-moose,14Y2o9cMKEhTJ87G19Sp4occBrQxVdE3mJM3xMiJEj1auLF3Qga,41.415726501692916,-122.38437205768794,8c28110001923ff,0.5,Weed,United States
24,112JgS5gMC5xvNoiW5Q9Ewtc3FxqQ43JNp8S91h3fxpqgDG7TjSj,60871,joyful-gingerbread-ant,14Y2o9cMKEhTJ87G19Sp4occBrQxVdE3mJM3xMiJEj1auLF3Qga,41.507716409329696,-122.36649584489761,8c28110f5d447ff,0.3333282470703125,Weed,United States
25,1124SaAEM5rAM5yaktUDtZwLWoVBosCQE7sz4MdjomUxENXSAUtY,60788,unique-brick-guppy,13oBvk7EmZ5nMckycXRoBrR7ymXeFWn86gFhso14QnJWmB8HJQG,40.827802418766154,-73.95015255824964,8c2a100aa2923ff,0.042022705078125,New York,United States
26,112NpqyB7Jq3SrmG8tbMwW6rwic8ftpkDFPsechdRzuLE59QSNmY,60685,wonderful-ceramic-wren,13oBvk7EmZ5nMckycXRoBrR7ymXeFWn86gFhso14QnJWmB8HJQG,39.94441607894086,-75.22429068025859,8c2aacb20b715ff,0.3755950927734375,Philadelphia,United States
27,112iUbfD9RE7tNHz597EK19dYCinWy9mXWYPR2p1hitKJYukjZvm,60544,mythical-hazelnut-nightingale,13oBvk7EmZ5nMckycXRoBrR7ymXeFWn86gFhso14QnJWmB8HJQG,39.949760522107574,-75.21595282287153,8c2aacb255713ff,0.14398193359375,Philadelphia,United States
28,112Z9hK6yYPne5Ezp49YkFMDgFvWsBmHJcefospcRtRVeQdbA6ip,60418,great-infrared-puppy,13oBvk7EmZ5nMckycXRoBrR7ymXeFWn86gFhso14QnJWmB8HJQG,39.956236394324335,-75.20738542848288,8c2a1348b6db1ff,0.2266693115234375,Philadelphia,United States
29,11Q63euUamcdq6gf6XPKtEHSYH9GRYjxGopreC1QCq4YZoV3k3F,57454,brave-cloth-frog,14NdYhMByheXjC6nXe2QuarszoFEeeUrmzDt2HS6k5UgZBesuUh,33.219151857277055,-117.27986740061588,8c29a474bcd51ff,0.546875,Oceanside,United States
30,11WcNhLC1vXvwajQ31VKsL3JVtNsbcuqvfhoMQ23LXreiBWa7eu,57115,modern-obsidian-wallaby,13Y4FygWBtuqt7T3yxYhmrNmUMpqLLiouwnrTneh4aTnqS71zoq,39.97509305257343,-75.2472006984586,8c2a13499671dff,0.4027099609375,Philadelphia,United States
31,11WAUYVofcQX2aBLus211krCfXv7g5kpSSqwinzwpgDqFnnEAqV,53955,glamorous-pecan-rabbit,14hK3ktgo8WeSDU3iCyeohK65RV3VisFdhBNcgLMf9MwhpxgNYL,39.990736835480874,-75.24801306297816,8c2a13499cb19ff,0.0806427001953125,Philadelphia,United States
32,112udPvbAXMA9ytmqSCer2kfc3hy9pJpuCRqr8kjfaQWS2dK9re1,53487,spare-parchment-turtle,142bDSD9iZoV5Ur2i5J9kwJ8FPoaANJ5jQ5C1udTckKTYUQzdG5,25.039801578382647,-77.30334654740406,8c44b56aa6259ff,0.7142791748046875,Nassau,The Bahamas
33,14SgTsXAaa5wv5ungFgwBgKvJtXJGX4uvgGPFCZkZLPEokej68H,53165,daring-lavender-kestrel,141gk6C1KNyiuduW543uJfW6MXwMTz1dFeYCTn4RhkV7zmauycG,52.28882004560326,5.169784840053908,8c1969ccd38d3ff,,Naarden,Netherlands
34,14UwsYwnwYJCApdH15qWb1TRZ573nfbW316FNeXNkjxgbJ1ifRW,53128,best-charcoal-caribou,141gk6C1KNyiuduW543uJfW6MXwMTz1dFeYCTn4RhkV7zmauycG,52.29110959553889,5.171933786799259,8c1969ccd3149ff,,Naarden,Netherlands
35,11c4pxUfwby5rtz2PtRm4oxmndc8WAcQg5BxT7CNpU56hHqvp9h,51545,great-sangria-condor,13zjsrN7BAom45N7DXornx7htbMgJwa6azn4G6UcesgASrsTomv,37.29605570951407,-122.0213716258648,8c28347211a93ff,0.2246856689453125,San Jose,United States
36,11TaDM7tvgBe6RSMoLkQCDJiwBLXGiFxYap7rxMDP18SCHEKHrP,43288,beautiful-punch-porpoise,13bXRh6mMXTXwxJDXDPfjyuebFz8gob7WGBrz9AQr8dAE68QeTw,37.30400812264141,-122.0298889681574,8c283472121cbff,0.280853271484375,San Jose,United States
37,1128FzTKdNfePEUcVAMA96Uh2VN76sxh5tXLnvkX9QiHDw8szRZf,42528,jumpy-brick-lark,13626bLAfTKDFU1ujGYQPGq5wYTMxtCZ1GaB41DTRGRqN31bGwk,37.43640822365681,-121.9005795494341,8c28347a97801ff,0.4148712158203125,Milpitas,United States
38,1124dMWjC4nzCaL9JDhJ6TYRpGhqpQyYd67rXSSPKPy6prsbW8as,40527,quaint-currant-lion,13g9XtVkKrbnJzKTqwCmuSedPHdtN1KjeVE8AoD7yQZvfJCeGab,25.043607143162696,-77.30116449127259,8c44b56aa6c6bff,0.7142791748046875,Nassau,The Bahamas
39,11Ls3DwxNygA8aLBnL1MrzEL3mtNhevWNjgaQQu1rpVuKbRL3Vy,39055,micro-grape-iguana,135eDD7U6jW612gF5QZnJ197jDVWsCCAipFcsBd95rb4nurPv7j,42.02176036210788,23.990598228954514,8c1ec039085b1ff,1.0,Velingrad,Bulgaria
40,11PZArsY5b7q9BdprfcZjVqPrEfBXzzFGtNoiEmJ3RFgPJa36mi,38266,loud-rouge-cheetah,12xGBH5FaNumUBy3yDuKSeGiVKjMYcasyRqDdkxY5Kbmn4rfrn6,43.13394745131574,5.951850054461313,8c396820e2483ff,1.0,Toulon,France
41,1127FqapTFrq6MVxZtSGPu5eX6vBq1qJnD1mGaTwPSx1ZwjGybbq,38178,hot-butter-wombat,13626bLAfTKDFU1ujGYQPGq5wYTMxtCZ1GaB41DTRGRqN31bGwk,37.30311561643701,-122.02633584049288,8c2834721398bff,0.280853271484375,San Jose,United States
42,11SyeySippuyUP4EqymtLZDf4FQtDfP9gmauqYyZQRRcrpYmTj1,36055,upbeat-honey-koala,13oBvk7EmZ5nMckycXRoBrR7ymXeFWn86gFhso14QnJWmB8HJQG,39.958144390774734,-75.15551398054404,8c2a134d4d8abff,0.3759765625,Philadelphia,United States
43,11hvufH8Aw728gAmLVEvGX25oL9B6dkfcnXTkZ6MSYgQuTAWgTe,35259,dry-parchment-shell,14m2evLRk6J2fjkzLdQiP1kz1KYLJLoVLsbrKqke8mnD13tGnTY,33.98054960185358,-118.22400136521382,8c29a56de8523ff,0.2509307861328125,Huntington Park,United States
44,117TBsEySWzDcZwvffcW3Qng46VwZTZ92A8r98iyZARxHquYP4b,34762,,,0,0,,0,fail,fail
45,112AzVjrhMydDwvQ3EvgTouWTg6Bs6NDt7Qo6qN9wfYrfD6Gaa5T,34364,strong-glossy-chicken,14gSYTUiPqEw56CiNz9nPprMS8tHwcGbEx9LDZq9UMatUsgwMDK,45.522419303275015,5.907056118864709,8c1f916d59899ff,1.0,Montagnole,France
46,112RGDgPqNvcoidEJHWrgXqFdXcfU83D4gkcXmTazcfqkbcMABop,34200,unique-obsidian-ram,12wnUhhVPXwwDdtdrjDSq1CSUU1kUX7HVqcbcB4CRgZgqY5jSmc,37.30224674273056,-122.02199734611796,8c28347210da7ff,0.2246856689453125,San Jose,United States
47,112ur6SkvTvQSPJ6bhG5Wdx6LQnCXECiF35f7eCeDbyrgXdLCSc5,33667,stable-powder-chicken,13S3TqcCDojSVjHboNKo5CHaQb8yYwspJdXPMnyPqbVCvwPqugr,43.13872122365426,5.901618859849879,8c3968203802bff,1.0,Toulon,France
48,112dnQAveLxGfjNGMgds5PEXHS3CXiRFuPX2xmEFdTyuMoKEFRy9,33561,generous-corduroy-elk,13CDnuLfzRcMovp4WNYvuHpqD9bXgC2sacTxhuVRshGDxi3TfgJ,43.578736182969465,1.3312846026382292,8c39601b05363ff,1.0,Tournefeuille,France
49,112qDAkUDjWwXfzKL16uFAtFkoSnxQQaoa5nHx47r964P5QQDYEL,33279,,,0,0,,0,fail,fail
50,112EjrJ1MVuYzherHUSxfbE5nHkE7NJBvqGFv27oAvtWM4r9wSBF,31649,zesty-bamboo-viper,14iukpHXca8j3DTUKzPxwqsDHHYXQMW2NNWiMXihghEVXweBn4A,25.033413849488753,-77.3070148125731,8c44b56aa022dff,0.7142791748046875,Nassau,The Bahamas
51,112vEeZu2YJ2u7pKyHzhnGSoDquaVKjGToFt5kKc8mLL7RhULWxe,31229,,,0,0,,0,fail,fail
52,112om463TkKWf8yt8Hiod2xY48aPozP3nsSBZsxZuBfCqMha2miJ,31054,,,0,0,,0,fail,fail
53,11FJ7cnBHMuQtGWb6SYWwFykByUFiHHwN1rC8LxnJveu6kDqZjg,30370,restless-plastic-tadpole,135eDD7U6jW612gF5QZnJ197jDVWsCCAipFcsBd95rb4nurPv7j,42.124417540279126,24.06260106655044,8c1ec03a574e5ff,1.0,Simeonovets,Bulgaria
54,112vsMDbxSqiRreGWf46Gjgy4Cv8e9eu9zuuZ9bgYCTPA78sUvPp,30289,amateur-flaxen-mouse,13VF4WahkUZJD2yH9AFCfYEUr1zMv5yskErrcdfkxEJLtqcfkoe,39.94860475178146,-75.21961867838208,8c2aacb25401bff,0.1922149658203125,Philadelphia,United States
55,1121BbMSc6SvC6GL1asmLnV87Tp6pJxK5p7Cp34nZyAmdFxt2YHS,30223,low-mint-eagle,13j48GzMZA3KNsp5T65or4dFWLF3tFWh7hDiSHnQDskH1CM4wfg,35.713465896307014,51.4201095128571,8c2cf30103429ff,0.4595184326171875,Tehran,Iran
56,112m6LBngTnSHeH677jvEF6uQnMZ9Gz6Cv8oZ62GZbrQki2TVQzg,30067,itchy-hotpink-kitten,13Bepm98dMq8YpPaseJqU1KoWyqHFnoDu61rfSgds8q3gaUqvh8,37.39276692996049,-76.27538576101294,8c2af61264593ff,1.0,Mathews,United States
57,11r8eFtRWs9S9NHFkxdciHapzgQvT7c7UAjBmVMmiTGGSjzN8Ri,27706,round-plum-narwhal,13wNbfkM4Es3zrFs95n6AVQKW8TZC5weJUwdnW2VAo5L2sw4i6Z,50.06610016475008,19.96746860545449,8c1e2e684d811ff,0.3418731689453125,Kraków,Poland
58,11NmwazSadzc6t9SwqAw9XG3F6gUD5MxZZe4E8qZ3faLzp4pRh2,27670,modern-crimson-hornet,13vXeNFcxUbQb2Q7kxHDfoSBLsYb7okMfXUCdPB6owwkq8yThc1,39.96001426959816,-75.21210331680325,8c2aacb24a443ff,0.688018798828125,Philadelphia,United States
59,112wTptAYSGBnfxo33ZHormJ6zb6UEqiF7Py1RtChogBEVyHLfaL,27599,calm-spruce-koala,13S5YHo8wyZSD1BnNh82pbYRLeoCdRzR4y5C3dgwkc3RNazN5cj,39.94076204801484,-75.24292661200774,8c2aacb207469ff,0.6580963134765625,Yeadon,United States
60,112iFbyziwG1Bcga6VUNSQH2dcyziQbapoHNTTPz7mo7QfZso34b,26637,,,0,0,,0,fail,fail
61,11e11ExmdkgaVa65piLWR3qgCRGFqihGDuA1qir3Hef6jfdZ9uv,26493,daring-cotton-squirrel,14rtVh7sJZnHUAZvu13Zuxby9a9fdR1k4ML2NVRxy9En3TnCBzZ,24.17300769839183,120.63221399504147,8c4ba29402985ff,1.0,Xitun District,Taiwan
62,112Djg1pFBsq1i2DpstWmsjnBm4UssjGBR2bSPcasf1TzLGsi1yz,26264,,,0,0,,0,fail,fail
63,11ZQgmEPFH3xLZtD3SysU2UtcAjadtWFMjkmxoj2TUnjueJDEfj,26199,upbeat-pink-dachshund,134dGZevperxSe45PsxMG4R7PfgmhJuQc2aLfbzvW3gbgTKJARv,37.78101706517661,-122.41842751785275,8c2830828758bff,0.0825958251953125,San Francisco,United States
64,112cank5Sjq4shXr46saApfXKHPz1FkZiSc9iJKi1rEu1WwL1wYz,25464,hot-ebony-pigeon,14qi8LP18FdUQRA3tK6vc8sT7cFS1PKNfbCzCZ5jbHWLYwPqTQS,40.00599081906994,-75.22413093775033,8c2a1349d8833ff,0.4031982421875,Bala Cynwyd,United States
65,11WuS7QQDQv7U8ortoKptFxUVnqWmzTzJ8vv8zo41WMdGBXJBhe,25415,steep-olive-wombat,14hK3ktgo8WeSDU3iCyeohK65RV3VisFdhBNcgLMf9MwhpxgNYL,39.99139274584275,-75.24904607300277,8c2a13499cb65ff,0.0806427001953125,Merion Station,United States
66,11LHDCb5MzTj23g1ZYWpyXqDNdezPxJpH1zBRydd1idmfwBJdTR,25386,sparkly-quartz-beetle,13goSpAQR7M21P5tYAsHALwGJfkCjtaVS4LpmtYvKFnSi7W61WR,37.90541545023198,112.15991231059164,8c31909b089c1ff,1.0,Taiyuan Shi,China
67,112sW6BzHESR5uGcocGJ6wwShx4uAoGbBpdMzZVUhGbQ4SjZGVm5,25299,interesting-myrtle-ant,1373182ArAMHDTG9PYjPzSAoUKxWbf5EoMfmU6u3HeinxraASHB,44.72342608428932,7.943109156617147,8c1f9aa721329ff,1.0,Monticello d'Alba,Italy
68,114cN7jJsRFqmacWecZDHXL1ZfQcNgsuSxoguJjBTAV9qcyYCcx,25136,vast-clay-moose,14rtVh7sJZnHUAZvu13Zuxby9a9fdR1k4ML2NVRxy9En3TnCBzZ,24.169601744864416,120.63088055516972,8c4ba29406e99ff,1.0,Xitun District,Taiwan
69,112ZsFxVCugS3F3irAb9BeE3bxnhD7nSMDPio6dw49akotjBwBH1,24853,wonderful-viridian-fox,14RqCF3i6EoJW6EqfVAh3udsfQxJpjMz1Jt8uAR5d8E7Bqg4e5d,24.175424413158925,120.64132856791049,8c4ba294141e5ff,1.0,Xitun District,Taiwan
70,11DXFqJ4iGSZN8uuPvidAJ8rwZnFsegreTLWRXPfaSYYDRxZbkS,24709,curved-blush-huskie,13j48GzMZA3KNsp5T65or4dFWLF3tFWh7hDiSHnQDskH1CM4wfg,35.713701381827796,51.41550607155924,8c2cf3010a893ff,0.4595184326171875,Tehran,Iran
71,11DsknMh5PepGSkiUS6vtRJX1S3Xbyn5JSZdmHoGwDJDTMMCJxC,24623,beautiful-lemonade-alpaca,13oBvk7EmZ5nMckycXRoBrR7ymXeFWn86gFhso14QnJWmB8HJQG,39.9582700216973,-75.21577481645397,8c2aacb24ac99ff,0.621551513671875,Philadelphia,United States
72,11MVgRRj83KjUXnma4gXkUP5zCHuHxXxGjNW7259zMzFfGpkDHZ,24510,jolly-raspberry-pike,14seCesScjmMFqTuGLZHBzi9gG3u31PophUyMo2Z4CgptjRyzrA,45.56155117706822,5.920734614112546,8c1f916e26829ff,1.0,Chambéry,France
73,11uBCU8GnWQkvHSnE6xK5EFhThTJoa4tG8VpQ8iE4LWATYzXUK1,23803,melodic-raisin-wolf,148d6LjR7RsXD2SFjzuXcJDZA6QPFdwSVoP11bu6ZKegBvTzggg,30.152286772716423,-95.41007469580813,8c446c25376cdff,0.2001953125,Conroe,United States
74,11HT48RWE94cZ75DoSfNXpfSKXJtSDoUic3DxiGN7SDY4wYgMDx,23712,,,0,0,,0,fail,fail
75,112cjYsZRWkCctBwbvP2KBJSNgnVn71UAHqtRxqwpQttdyrZJUg3,23702,savory-sapphire-moose,14RqCF3i6EoJW6EqfVAh3udsfQxJpjMz1Jt8uAR5d8E7Bqg4e5d,24.17175687541963,120.63960380086586,8c4ba294386e1ff,1.0,Xitun District,Taiwan
76,11upjnnedir39rAUxB3yFrHbfRGRvUM9QCG5hFoYxra1mPQ4y74,23441,icy-olive-pheasant,13SHYpyCK79Yh33TXKyTmN1AETR5V9CnLXVWbP3hNr8UZcEwjre,27.55187310005635,-81.8339790522099,8c44ada9a7b49ff,1.0,Wauchula,United States
77,112o7rM8EMcogfjQTTiK9APcFdb8xzwep9ph13FhMyb2wiuJ3acY,23347,virtual-daisy-lion,14ehZkyXuWU2s8vpKUGesY44csMxVPqfJm4r8veS5EWdkuT1SRi,45.497892561870806,-73.7319048294266,8c2baa4ed71c1ff,0.44110107421875,Montréal,Canada
78,11VkFM8hoQP71xwdAAxzL4QpTf72G7T8xVMUXXsJ7Cz51omvcRj,23164,,,0,0,,0,fail,fail
79,112aVYm5eyJgrSuPtMYAnQRFdv5Snfc59VRC6gzmZV9Zp4JxRNRd,23157,zany-tortilla-chinchilla,14XqPW1ie6xFYiSPa4EUTYvKvmmHcGC7gS7g8HrNea4ejsUPtX1,32.75103025279519,-97.68503963833896,8c26ca3019101ff,1.0,Hudson Oaks,United States
80,112GDq66Lo9uEeGkn3DbdCrBkex68abXLgetPkRGnTyEVJxQEs62,22931,glamorous-pineapple-lizard,13xeX2YNyoVn6Bpx1XRnmxbkLVtHSefWWhL61iM1TLQQminLU99,45.44907571289939,-75.63670264981624,8c2b83b2a82d9ff,0.6009674072265625,Ottawa,Canada
81,112VmamcoL2fhm2sxSfZXaNUW6EdR7aLE8b9pXcfUDg2uTLdvwLq,22214,proper-coal-caribou,13mgPa9mXDqUf98Y8VvJrKtKeWiPqzT8LczD9jqNpZ5ifp1DrC1,44.10423531744238,-79.49523992670527,8c2b9ab5956c1ff,1.0,East Gwillimbury,Canada
82,11nu34wERJe8iVGsV3U3hHGsatAuXZ1b8G8Jp81dUn9pzKDZayo,22197,lone-currant-penguin,143j7dYDty4NUNqYuh7L9dovVT9dRVkf7m7PEdknUYoT7BNfidK,37.30020043004725,-122.02488856733409,8c28347210ed7ff,0.2246856689453125,San Jose,United States
83,11oCChKGKrA1vyVN2GoMV61dD1mfJAaSeEP9V8bFQGD52bsXukQ,22132,uneven-aqua-crow,14rtVh7sJZnHUAZvu13Zuxby9a9fdR1k4ML2NVRxy9En3TnCBzZ,24.174300681716176,120.64900141679357,8c4ba29416aedff,1.0,Xitun District,Taiwan
84,11az8Ccs2VcjYn7ChPZBRX2LqnjWefPbd8rkbZKy3w5EvsdXwKv,21687,broad-hazel-shark,134ogiepsRonBqufs6uZ1WoFT3fV1B1v6NUPAraXH6rUBYSPDTJ,39.95023442669233,-75.2189507035726,8c2aacb254245ff,0.1922149658203125,Philadelphia,United States
85,112UAdX6YKxHLU7Rh41vLCbEk2seyGfu58rnx1YTraKWtPvYwMmw,21603,flaky-tortilla-skunk,14p9KWArKivDZBDWbQzXKywLH8dSXYMgLajKQCERbV8hchqo5YT,53.10661834134809,23.19488815718596,8c1f51331443bff,1.0,Białystok,Poland
86,1124SvUoRNxmFCUutaWgWv4gp6kjmVismqKj4PzQBrHN5KSKaZfa,21480,agreeable-taffy-shell,13CX8ca4nhRyGQZygbzrqaWQyfKMHGQgkJnMcUX76zDczEvdcWz,40.50232853271014,17.66046445817769,8c1e8b1600337ff,1.0,Oria,Italy
87,11pCw8bVXr5Ap8HNVX4VRTK96XpPghLDVfTf8BEWBnxGfS9eWv9,21201,ambitious-gauze-cat,13X5ZenfXifvjqgcaig546Hp17GDpV9TDQ7K6GYiCDAXwrDAkGS,30.20078161838484,-95.50917477628582,8c446c24b453dff,0.301422119140625,Spring,United States
88,11VtM4TbGCqTgSKFoKazQnpYEATiEg2a7bN29DXDDv4CmfCoX1H,21167,rich-alabaster-whale,13fbQf2EosyNfrDgceYQqv6aj7C3maZNaFHBjkhKm9keaMzVwS8,39.94063031959484,-75.2365979413562,8c2aacb203ac9ff,0.661163330078125,Philadelphia,United States
89,11XyULyUvqVLACvzPWtHG8YrdFdE5cVH94q1KoX5egAPLGnmtRo,21005,original-parchment-raccoon,14n8RqVyhb7SdkUN536krcMJFDYpKfFt53hE2Vam5d46fi4N2JU,43.601465600828995,1.3712059352066162,8c39601a2504dff,0.25,Toulouse,France
90,11DauHcpdp1CGwSUMj46hbuKVkELz9LdPegF4yD1toqYwyv3ipX,20410,powerful-obsidian-dragonfly,14cZHkUbbMnHqzYAGYciQTgPsoB7Q6uHSQzMfnFKzimJSn2pzRp,39.98331265019747,-0.05156749984633693,8c3954b092049ff,0.6666717529296875,Castelló de la Plana,Spain
91,11GHJMBYms8uaeypYFYssjRe4CSfFApcWUQx2y62DUKCMF5QSAt,20392,merry-indigo-octopus,143huYc74yktxrmw4A8TXCma78VjdxGH5Z7t1ysmprzaAQS2rmN,41.10224784941341,28.985494005980367,8c1ec912b8eb5ff,0.4173736572265625,,Turkey
92,11gwCKHv1yxzwFBqTkRVgqfBZamUqiKU8uwP7YK9E2q7ZRxMkpb,20245,beautiful-latte-horse,134ogiepsRonBqufs6uZ1WoFT3fV1B1v6NUPAraXH6rUBYSPDTJ,39.9506631016416,-75.22173069941606,8c2aacb2558c3ff,0.3183441162109375,Philadelphia,United States
93,112LzhChDUpcrGQSrnhFkCPFnhPss6L9XYKSat6RH5ERYHp9jyAr,20114,crazy-fuchsia-viper,13X313CE9tD35SgBwtEtHaTfBVahZRazeTgM1DKFroatXYkmuRf,43.601310740384314,1.3720668325458247,8c39601a25057ff,0.25,Toulouse,France
94,112vrWc5z2rLEZmXKPcuGDv3ehphdrWCpabGqxtYyzd8ZtvAtRgZ,20047,sleepy-yellow-millipede,137k6vt24UoPE9f8mVVyeRpLtGYSdDQqvPwXb8RxYpXyoH2P5Nb,45.764946307673675,4.843632763264937,8c1f90254c95bff,0.7633514404296875,Lyon,France
95,119FiHwDkwNoyPu5ff29WqKv55MsSowfVH1xh5A9qEnRTvB67b6,19937,bald-wooden-cormorant,14jmrJ84j4nryTL6ZgyP25ikzf9NhqjuHGoZ5Nhi37xGsRwAfBt,34.69113530064501,32.96845443015777,8c3f4da8b70b5ff,1.0,Ypsonas,Cyprus
96,112RXxERCjVL52rCcThBtq6mfuhiTAdfpT7SKJmpzGmDS22ubAZc,19785,melted-cider-shetland,145kzwQbPh4odfc7DcdzMMS4gsX4GkmfhPyAUkaCZoTjLx6PtBm,43.13527963813318,5.965573242370775,8c39682080d63ff,1.0,Toulon,France
97,11DntYHNQ8kexWwn3RVu29PGveBzSvM1yg7jqc8NEpZUPwWZvTh,19522,wobbly-rosewood-terrier,13nYM5RcaunthEKhMuBUfvPCxGDX2je59PJFPurFW4Ly1QUxm8q,38.85847841662842,-76.73995782643375,8c2aa80d64f23ff,1.0,Upper Marlboro,United States
98,14TrBa76cXvvwksNwM98fzM482p8nKuWFdensrjFy6rRkRtppMc,19440,formal-wool-dolphin,14XiYuYdi1sUrnEo8v4ijaYcDouezpxhMmPewv8YhA7WAmavLSi,33.945441639297485,-118.27354963804663,8c29a56c0203dff,,Los Angeles,United States
99,1121atXtTVkiLDeG6Z2zzBmLyFHC4NMiHpbTWbFAd1ALPHMCAVAo,19437,,,0,0,,0,fail,fail
100,112NtuNLQyojFHQvdKh5cdrGMZ8ZMb8icwoLzCRMTt2fGpVtKDWZ,19354,modern-chili-troll,13g9XtVkKrbnJzKTqwCmuSedPHdtN1KjeVE8AoD7yQZvfJCeGab,25.04749930615718,-77.32703417628659,8c44b56abba23ff,1.0,Nassau,The Bahamas
101,11Kij5E66RX5g4N46L8YNi1tncYvfW1Lso1VmKazs6TW3oZ3U9K,19266,acidic-wintergreen-lynx,13goSpAQR7M21P5tYAsHALwGJfkCjtaVS4LpmtYvKFnSi7W61WR,37.89843914193946,112.15939528257512,8c31909b0549bff,1.0,Taiyuan Shi,China
102,11YDbZjMXYpsbbyQzNAcfo2pqxEU1vsAxhkkGFHaWpMnFzoqfiq,19188,best-seafoam-hare,14RqCF3i6EoJW6EqfVAh3udsfQxJpjMz1Jt8uAR5d8E7Bqg4e5d,24.171604013102296,120.64359316313399,8c4ba2943b085ff,1.0,Xitun District,Taiwan
103,11Tm6XtTvHCVaSMwnsocVnGPTYBwQXa4vrtMNkhdTCrBGzzw8BQ,18990,acidic-pine-ram,14sjazdboraLvFbsJsa55Q5ikdRxzX56nsKradtGUeP8nWrRuD5,36.19606375628886,-86.85004894257563,8c264dc491b03ff,1.0,Nashville,United States
104,112EsgFG8eQUXM8gAqCW7Z5RhyzRDqV1tZZB189sQqRH69SYZqCm,18839,unique-raisin-jay,14bEMBBKxqeE3tzGjGCrr48B3ocWUS2NjPS8Mu1Pynoh3EQZ3tP,29.952779509020253,120.17660623865432,8c41964c579a7ff,1.0,Hangzhou,China
105,13NhuU3yDqUxJ1DreT1E53t4Au8U1Q4rnz5PKeVANMhtTTKgVgK,18728,broad-hemp-sealion,1311dSbARZf2SDeieYTzasmDLZzBdCnhmyUo7hLBW5KtNECCDmW,52.078143204187896,4.273991778355548,8c196b85c2009ff,,Den Haag,Netherlands
106,112T57SfQft8uGKxHyB6nz5MJBq2rZXcT7c9E7fpKEmQrB3K54g6,18725,fancy-mustard-eagle,132BX17xpsyByhhXK4VnuJBUA8iUF4XzUAYJY3DjwaMvz9sUeT6,23.685175501961716,116.60290336174754,8c4112a346cddff,1.0,Chaozhou,China
107,13Tuo4T2GN7zPEkrDFwosh318w9vhT8dXm7m6zRb7KxYjAynbtK,18176,pet-gunmetal-dragon,1311dSbARZf2SDeieYTzasmDLZzBdCnhmyUo7hLBW5KtNECCDmW,52.084398024966895,4.282361596498853,8c196b85ca047ff,,Den Haag,Netherlands
108,11248yzCyjHw9tW9swixgm1mBJPswWgRot93kDsCENLay5hn1thX,18115,rapid-canvas-swan,13bcf6UQvB33wCwtggnMyk2LaQwL6132M1ibjWDUkgWqrRtEcZr,32.744383257556954,-97.65392723198697,8c26ca32aad89ff,1.0,Willow Park,United States
109,112jjETch67z7YEpesCYjHWNFr8mpuN9dhvFo2tXJ7L3CHaqcXDu,17942,gorgeous-daffodil-dove,135xrPbwwktz51SGfFjtJxkh58wSUinssEAAMdFzKTJA1Nf2iaP,33.12569951725634,107.35026671937109,8c40f25aca123ff,1.0,Hanzhong,China
110,112QncGkt9zCCeWf33oaFKVPETkyxjZfb26NsNseBELdztY3qpc6,17906,clumsy-indigo-dachshund,13D9c7csv4JRodUe47oQUgZgD3KZPExYUccbY9kqjTMa2j52UTp,43.60694168902582,1.377512065179339,8c39601a21335ff,1.0,Toulouse,France
111,112TL2RoJgo7iLfLLtJEkbmruHHDYYPWoBLsYuhZnpQbDbkvNaPs,17774,tall-honey-mammoth,14N5QJY1PAo83TUbUUF4nTGxv81Lx3dfxBYTvA1LCrupFL6MgdT,59.35749947187044,-2.443412811200872,8c192c3832523ff,1.0,Hollandstoun,United Kingdom
112,11aNAjNv7T7tcAgdZAnxBqy5vfrXU3KuAAAz7LsarGZU2g2DWfp,17571,genuine-maroon-blackbird,135nS6arGuJjw3CEDtSxQia1e5KGtNPpjrdTAAmVn6MPjaS7wmy,39.94837763086762,-75.22136688304033,8c2aacb25418dff,0.1922149658203125,Philadelphia,United States
113,112EnY4S8dMYrtKEKGnSZz4sV8GjgKAyDGZrbtKGT2BiXF2rhu9E,17494,sneaky-mustard-octopus,135eDD7U6jW612gF5QZnJ197jDVWsCCAipFcsBd95rb4nurPv7j,42.00817436661496,23.978252329120288,8c1ec039041bdff,1.0,Velingrad,Bulgaria
114,1125woDCsgeFEJnuA3xF89nXnGPwHJaoPpWgKBtRgiKmbetpQbun,17491,petite-carrot-vulture,14dm3gHJnxa662PfECUNsYJNjyiT2TV96hAVJq7UgGns1kN8ixm,36.150950541065185,-86.79202409991719,8c264d102c543ff,0.19775390625,Nashville,United States
115,11FATFpCvx9GmEat2zgB48L7do5aFQFwT1nEsnAcsRu5eiV7FHA,17422,hot-golden-fish,14N5QJY1PAo83TUbUUF4nTGxv81Lx3dfxBYTvA1LCrupFL6MgdT,59.36373184540761,-2.426327686158835,8c192c3816b55ff,1.0,Orkney,United Kingdom
116,112VffDsib5EdaZuDzbNz9EiqVpiMRDQYobXYhsh5tcfGhJeeUdZ,17381,wide-latte-caterpillar,14sdvwYBVuzicmD37ZpJCxpva3PwY4qJr7hJjYyukD4yyycuTwg,36.15222074655049,-86.79127270078327,8c264d102c749ff,0.19775390625,Nashville,United States
117,11LZuGoaWCqmrg3k9i4RBifuTopELSQm2BB2b1HaxMVrKjW6oHe,17231,brisk-neon-llama,14WR7Xz6PtMrEFzYGmPaGvK8C1a69GnAwthfwWrwU28tcEifeYU,42.33268942573215,-75.77328782623881,8c2b8b60c596dff,1.0,Greene,United States
118,11BpYFspDHDjCPcYntTTxHyDzJZVxRjic1tbbKXiWznbR72m7XG,17090,quaint-syrup-stallion,14XayQmSNqGrbcwHAxpamHnUkh1b7m8EV46GyTuzPM8PgWo5fSj,33.178037489769835,107.35502582174425,8c40f25818f1bff,1.0,Hanzhong,China
119,112mjich6ZdUqMcsW97AgHbx3QaFSvDDgFTiiDTFaCRhBWyZhZTS,17076,,,0,0,,0,fail,fail
120,11zom6AgKS1Z5kXc8cAgAhhcnTUK9Xz26ZnPpURE2wj1ni2UMAS,17074,electric-cinnabar-toad,13uYmfM7SpKrvkVBeugJPREi6xisKR34kN9sJi1adwXwdwBwGJw,35.298216626131634,25.14689065559789,8c3f73c53596bff,1.0,Iraklio,Greece
121,112niUGnz95abEDbxT17WHn5tjjua7dy3AtxUuweJsHGWy97GXko,16990,elegant-topaz-newt,13D9c7csv4JRodUe47oQUgZgD3KZPExYUccbY9kqjTMa2j52UTp,43.614016597861514,1.3682503510936728,8c39601a660e7ff,1.0,Toulouse,France
122,112SYcsrqHeBGXUeBm6afLvASPbCaoEC3NczdcFPmnYAGsSN4onh,16868,cheerful-bubblegum-mockingbird,14TcSaA32EBk8NifTxgRtgUmWh7NLfunvvck4xRhfbRZ5wMNaG3,10.984672862549752,-74.79696187997867,8c66220861483ff,0.5,Barranquilla,Colombia
123,112iY7Hw3LMiJYTBQZdzUfne8Y2RhuzcpQbQLikfeozRCVQK7kAo,16740,jolly-quartz-starling,13EwKZK9aYWKHHTUEdbHjJcy9wosZjMBRp1vDWmPKA7pnh3dfu9,44.804960574557605,-68.9027888361169,8c2b1a88e0555ff,1.0,Hermon,United States
124,113eaFnVuRSixYh7UL338U53yFZ3etnQg3nfBfFiGCteHyybfmV,16627,breezy-lavender-capybara,138iM69RzMUVYhsoG8wkC3HnE3X4w9mYGChAPSC497Lu3K8WNUi,39.93955315235596,-75.2200185633697,8c2aacb256f07ff,0.7241363525390625,Philadelphia,United States
125,11s7gwetnxsGeRRXYwpcCJHf5jmDJTjnVjMd4UmuyEiAqAP4KKv,16610,fast-pineapple-parrot,14qM3kGACAQb6UnCTS6Hv3kYFSwgytDDjhXPDF9U7ATRtC2AT6D,30.16566949329836,-97.84167390352846,8c489eac8a00bff,0.9174346923828125,Austin,United States
126,1125bJj7tDFq4gKxZJv6cTfbjXJKjRUDm3rJbFSnFK56iMMAmrBr,16436,salty-sable-penguin,13h6sZEmWAW8ax6NdYh6q8uRNnHNjcoMhLCPxauSykLZCV6fST2,42.03463660182736,23.99692389336143,8c1ec0395ceb7ff,0.7142791748046875,Velingrad,Bulgaria
127,112682WpjbH1UjoCgbXCxsJzgJDAkK3JHt8Y1sMfmABoCoRvocKA,16434,able-zinc-hyena,13X313CE9tD35SgBwtEtHaTfBVahZRazeTgM1DKFroatXYkmuRf,48.87179899360146,2.5839612799545755,8c1fb0923db15ff,1.0,Chelles,France
128,112vbDLds9uQK7xZkSJkDYXftxNNCZeKJVmi6Tgb7j4gLYym9A7o,16252,festive-garnet-nightingale,14a5u7KC25dUHXCVwLuS35SckMp2xYZtZWVF81jz31oDf6HxTVa,25.04130791771248,-77.35529544575711,8c44b561a45cbff,1.0,Nassau,The Bahamas
129,11au88GQXAU5pqSRXFXLuTeLtKyzp7iHdagU4CJzEYyAwZDxeTz,16176,striped-silver-koala,13HTMjiajzyYNERWkRw7pHEt2AjuWbqvDcEGvErpyypgiRhgzH7,23.646749163567048,116.6550334872372,8c4112b132b59ff,1.0,Chaozhou,China
130,112QcGE6B1DZHEPwB91uMP1hfbXHJGP6PawXcT2F8JcUz4qj6c29,16042,able-infrared-gerbil,13GMJPso5dBRFxnKDkyyhtCF4tzSAtBvnt1fsX6k6S2fvxYRxho,39.12358010836636,-123.20797788586242,8c28316a95a97ff,1.0,Ukiah,United States
131,112QYysbYK181kfWSr9MAnuXnUBryp2J8hgjQKh9CcVVumyc7Axa,15997,gigantic-carrot-tuna,13kPyj9nGLFe5SsZiF64QpmesHdxuJcXLxWuqgiJ3Z85WdMK6z8,51.12611020912162,-3.0100637983062626,8c195bd686c4dff,0.5555572509765625,Bridgwater,United Kingdom
132,11WRvBHnjrQy3ZAu2pCtyZZihkZcTR4aCfYcaSgA5ysJDMWXgp9,15884,helpful-pine-swift,13fKvHsNB5zh3Dwd6FFdrKgvkeDAfrJpLFas7G21aUtjZ8GnYbP,39.19740429975623,-76.82556039117225,8c2aa8cd1b9e7ff,0.692901611328125,Columbia,United States
133,112pc3jN9k3sYoceJ8f9jDTgsw7nMU3rZ1YTJzmjsRq8qPNVLs7Z,15829,bent-bronze-tapir,14ELyWuYurxLm8qkxRNM5XWUXR141g8FaBTjccya5jikUz8FWiv,39.99051018124,-75.248342486062,8c2a13499cb17ff,0.0806427001953125,Philadelphia,United States
134,11N149ububc7cdUbnryLgbNLwUxLidA6epdZg1VKj2GyvCbZaWm,15809,scrawny-rusty-oyster,139y4SLUTXp3rPc7QVu1S9peY3B7QieBJi5Tq9a2yWrsHMEJLYk,47.68547182229617,-117.45057325153788,8c12db0db595bff,1.0,Spokane,United States
135,112n3pe3NiH69J6tVN2SLDbgPGZeA32GwxhDMUTeca3hVgDCJpmb,15744,fast-turquoise-griffin,13CGLj65thgc3Zv7Eyv985AP9fvz3JRvSfx5mZ47bpkU7v66cu4,41.349764570682666,-72.10492194996061,8c2a336caa2e7ff,0.4166717529296875,New London,United States
136,112uPQghMDxNDd4gart28pEgSL1s2dRTgHoW2CQ1hCNgV1rSCz9d,15614,tall-pickle-lynx,13h6sZEmWAW8ax6NdYh6q8uRNnHNjcoMhLCPxauSykLZCV6fST2,42.035149347990114,23.987250524506543,8c1ec039436a1ff,1.0,Velingrad,Bulgaria
137,11GahPVTouJmP7E1o6Va4VWSDef48H8yR4Yvha61mkzg1UaCxLL,15609,soft-stone-giraffe,147Hm2ZjQ4151FRCoEp7xrpde5fGaAUUvrNiCCDQLuQUMw8BiM7,39.984030943131046,-0.038721326374222244,8c3954b5454e9ff,0.6666717529296875,Castelló de la Plana,Spain
138,11vy2r9UXApywGjdW7T7hyAuVTfVJjBLfPDgqcdYTffQQCreL9v,15529,bumpy-flaxen-raccoon,13PHD28FTc2F9UByVdejT8HN3M9oVe2sX1bLBQJyqw77fckmYDP,25.05884551048804,121.61327028222635,8c4ba1d326757ff,0.1999969482421875,南港區,Taiwan
139,117JoqU8bzA6VUhGVToFkWVibich7h8acMFNKacamCdg1aYZxpp,15355,,,0,0,,0,fail,fail
140,11LU2ERZsSeKQus3nAgJZJ5mah3mzhWP3DhiRdrbJmKraVAftsT,15124,magnificent-orange-aphid,14XEARg2dvtJAnw5fkpqSYFL2pGKC8riEeEjbMMnwdequrP81ey,39.62548956080413,2.6291342620321823,8c394266214adff,0.7042236328125,Palma,Spain
141,11YQjT4qejKicwHuKEHYKFDnMJzy7i8uF3pGRxHbw5i3VtJSrG,14738,cool-mustard-sparrow,14qr8d5Pa5EoMpdkUUs7nhUZd9GLEBF1C7n5Rn6KA5a4PDrhhC4,41.264087596113555,-70.108251295894,8c2a312c30263ff,0.5555572509765625,Nantucket,United States
142,112vGAE1zUms5tiaZcXiHBdKxFBHSk1V5WBBjT1ppEHn5A2TfRHw,14679,cold-lilac-stork,14T2oAJZyETkkDMBi7YSkDL9qCpczj1DhN1B8x7PkxxMozX2Sa1,25.05884551048804,121.61327028222635,8c4ba1d326757ff,0.1999969482421875,南港區,Taiwan
143,11TXe7CkwLooDcg2e821XbmQ6GLnT5jS7rc369YW33xwrFEm8Ed,14538,massive-golden-hamster,13aAV6NPgrHuq7kBnhaxPcuZKrShVVDuaAXh3CL41t5pP1AqVS8,37.31123147862149,-122.0225619274374,8c283472e99e1ff,0.2359161376953125,Cupertino,United States
144,11Nr3Xv6zrDSMYaKHCkbvag5DPDRD7gMBYy1TUXCkuPYpJeiszG,14506,powerful-lavender-gerbil,14KpC3nfrba9iqzmaHmZp1gjWhKpKMepJvbcWNHc7t317AMv3is,-34.61278807011144,-58.44832276406435,8cc2e3103b263ff,0.7407379150390625,AIH,Argentina
145,1121Tspb3toUo63T4pmQuqce4w8HBgF4mS4iAD2s71zyQhKJXQYw,14337,brisk-hickory-orca,13mgPa9mXDqUf98Y8VvJrKtKeWiPqzT8LczD9jqNpZ5ifp1DrC1,44.06599701170425,-79.47756501241807,8c2b9aa608ddbff,0.5128173828125,Newmarket,Canada
146,11kJ3ywHjbtVtkgyvAJfiXGUb6sCpxBYkjgxhLx3VcBt7u41yv3,14184,fantastic-chiffon-worm,13SHYpyCK79Yh33TXKyTmN1AETR5V9CnLXVWbP3hNr8UZcEwjre,25.5646714961833,-80.45518127572385,8c44a195c2f11ff,0.65673828125,Goulds,United States
147,1128LvTVLt9V1FiVSfFqFnUPYKSkyS4eP5oBtqrfWQFseC3rBJAo,13983,tiny-pear-huskie,13QipCcKFSECQCHC9S67NK76E27ixLHpkuwaoNMjoUXowNi5b44,-32.076079629222704,115.7891837243439,8ca726d5332a1ff,0.8012847900390625,Hamilton Hill,Australia
148,112nUeTCxqRBzchC6scSosCWbXDpVVCY9n1CbS1DCPcKCysfsS1R,13930,teeny-fleece-condor,13CYpXcUPJaexgkAVQbKmsiqY8urrL3TSBHaD97YkXa7a9xzYeg,38.893192509978775,117.30343113454157,8c318c64e6e4dff,1.0,Jinnan District,China
149,11AL5VCTg6CBqZ73R41y72FRs62tLwKUJ8xiCkYEQzbQsy4DDr2,13921,orbiting-arctic-wombat,149wHVAwoGitwB2TVmDXiwy8NhZsCSsHL59pkpfCDBbskZTT6T4,38.906255945208706,117.33127813509896,8c318c648a04dff,1.0,Jinnan District,China
150,112AMGhACru1bn4ZfXojjiMjV3Zodssy4FeMb2Gmjc9rVVXcW9ms,13899,bald-vermilion-peacock,141wQUhBkw7BgkMhVn2MnFAHjq1Yap1Zbrv9KyKfRV3Si9Ux78v,48.750083949419,2.342003155853029,8c1fb46ecc713ff,0.273529052734375,Rungis,France
151,11qqbMRaeaQnEn2v4GrrNuNxW1CEWKeuv9pNppUKHRXa9jbES4b,13832,brave-honey-seal,13QDxJERT9bUvxdJTA1mJzhk5HsepRZZDzsYZ2DkurBmpqoVRXB,35.33537507310963,25.10233511555761,8c3f73c0bb4b5ff,1.0,Xeropotamos,Greece
152,11Z9u38gJFssz75EHQDUJvMtBTXEBbwSbGRXWaWarW9ruoYMbSR,13516,,,0,0,,0,fail,fail
153,112ji7kGiKHRRreecRfbENXht2gX4pQeJfQreuQpWeKNUdfEZBPM,13495,sparkly-pistachio-ant,14FFnEETaUmwjsX7nND3AdFEedKigyDDKE1sYJ7r4nfsuuhC6vD,48.88299768266225,2.590713868759964,8c1fb09202b19ff,1.0,Chelles,France
154,112tz4yKimc6adM7VQ5zzKtGgFWcNwpHEzg9b2d1Hx6pTfxrdo5S,13447,restless-ivory-platypus,14fxWf3yPBg9db4NmtoGYo3jsLNBRKn3HmD2ZJsTZ9V67Z5q2Ki,51.101529750750466,-1.0446552306138448,8c195982b6425ff,1.0,Alton,United Kingdom
155,11MRJLRJvZ7z8ohzp4TiL2HF86aEDvYg7fhoV7HbfLKwj2xoWyB,13140,interesting-hazel-bat,13Y3N2HgsSZuW9cNVujo6pBxgnVnJduwtgNCMWky98FFEt5q438,33.91488510249791,-117.3362039994852,8c29a0153c19dff,0.5644989013671875,Riverside,United States
156,112VKXpvGmfRM9CbauwTdTxGv8q4kjBjY2Expn9okAS5GK5ifB7A,13108,fantastic-malachite-puppy,14dM7k5ji4CgapvJth8Ds7NBwKNdhd6yp2jgoKm5HNSmrMLpiEh,37.684795757804515,117.2459429375998,8c318a0468b07ff,1.0,Dezhou,China
157,112NAC7NdtHb2pjWgrtS2Dyuv6XwgUb1k38enhdV6knaoiqMB5Sk,13058,,,0,0,,0,fail,fail
158,112GaZUxAQUgTdjsmui4Sp6qtDRda1abVsdoKZZQkUZDSYwhNmFe,13020,joyful-butter-dog,144Wb6CWkji9PeWYnr7A7MaNjjdKCFsc9xMYHYeFP7689j3zhmp,39.952594099709955,-75.20332211819088,8c2aacb25812bff,0.7207794189453125,Philadelphia,United States
159,112eEBW7xtDQVUFQLvzdeRZFbB6pMkCJ3DPKCgUxLXMdaTSdeHDW,12986,itchy-indigo-perch,148ptcyX1MwysQxa4urbT8YhbBcxfKcTjJbCzK6bAmtmYGM8gEZ,33.169157353819266,107.30009490091862,8c40f258db04bff,1.0,Hanzhong,China
160,11yvXVL1TiLAkhPpE32Cx5wVaRNKkHnKEKthdqbdth4RnHokpsv,12768,mean-gingerbread-panda,149wHVAwoGitwB2TVmDXiwy8NhZsCSsHL59pkpfCDBbskZTT6T4,38.89259629534908,117.35350221341072,8c31889169193ff,1.0,Jinnan District,China
161,11qMJyGTPDze2TRUPgo6ZVLMtncvsxnT9ADkkc3oY22RxUaEnu1,12542,bright-chiffon-mink,14HcdCN7GpC5zRwWQz11uhmhx2bBdLgBB2MCPHV5fdrFX8qAfT2,-34.55664899211538,-58.45669347324392,8cc2e30246629ff,0.909088134765625,Belgrano,Argentina
162,11W6jqDCKa5dXNziTfnKEkbgE2V4wQAH6wDnHr6ZypEJsMiDzsQ,12535,fresh-graphite-copperhead,14ZRnzj1kK5smjiLcM8WsuABKfM1MoLbzhkBWSo9ECW3UovPNL3,48.87438631495698,2.31073813850831,8c1fb475b0f63ff,0.2170867919921875,Paris,France
163,112CdaC8A51Yq3ZVLWV87RJ6UoXhU92NWrvd4NcuB8X5vBYreTmD,12488,kind-oily-seal,13LYpLiFG2Bufbhue7pnDwt46ax84mLgfsosJm2YoPnEyWyuWon,45.773937519678555,21.28973583784044,8c1e1928d14e5ff,0.201385498046875,Ghiroda,Romania
164,11ovFzA99QtWsbCPXKS9GvAqgfMUnEiUs3YdHVnWBwCnFPAwZCC,12454,,,0,0,,0,fail,fail
165,112ZL7MKyBegaDJX8KjWKwdBafDaMEhSpmM1zWa9Sx3CRdzBkFNv,12408,small-metal-pigeon,14amfSA7UMoxh9Kh7PjmhbaFLYV8eQnbr3F3zmRioH4FzQGZkES,39.969318642047426,-75.20793240222469,8c2a1348b58d1ff,0.3948211669921875,Philadelphia,United States
166,11n1TYfZ1YUmspzvHDww8WKt4RrnhznkVxMbve8zwXKPdNtir9N,12381,muscular-mercurial-terrier,13ZGs77k9Q8kSgn4aiGaznKeoRTpFMrAqBjTGhU5hDgpMxKFAMY,45.78938898549171,21.327821152252152,8c1e192f0cdd7ff,0.9505767822265625,Giarmata-Vii,Romania
167,118sTLymLFbnt8ZQsECsuSv2MPd9mLpQcpA1zArFF63t3pKPmf8,12344,polished-rosewood-trout,14VR3UAiip6q5Wvwj9vQGmajPwhnFc1UfbgBxoCTLgJb74F4Fp7,51.236898604197194,5.316146251618199,8c1fa430b28d1ff,0.7142791748046875,Lommel,Belgium
168,11KtCpecNrEWD1hAzLAT2zCE9gFjvTQ8ZLLNeRHEzMdmwCaJyv7,12163,tangy-cherry-tarantula,14UuVEF8P7xoMdji1q1LP19UQR7VjAt9wi8GJjmotA9iAa72MQg,50.99026590349194,13.8022142792281,8c1f1b46a5867ff,0.5458526611328125,Dresden,Germany
169,112mF93hC7bR7hkBWkMzMP8bSMHXu2nPtW4JicD52jeoLER4NqnZ,12139,slow-licorice-wallaby,13DCZKGUerMuXKjUmEwfcZgmrXcc118dQZofgo9GE7h6bpzb5c5,27.74422543045366,-82.41593674632796,8c441ad62a6bdff,1.0,Apollo Beach,United States
170,134FZQ6YwJv8cvQErC9bnEUPRHfu4gwFcfAh1hRdsBN6GhFLx76,12076,sparkly-fleece-opossum,13frwSVt14Zt7jgZdaULLWWLNdc2JWAZpUwLWdbfjhENvsHERrw,51.339947913083684,-0.8425958019067559,8c195d2f07543ff,,Yateley,United Kingdom
171,11xtVZDgJAMHsJZpP1EgTNnZ9WzV3uzY1abssGmgvwWoNE2zGtM,12052,trendy-gingham-tortoise,149MD52XzAjZ1FZUQVyCjHJMJcUxjvo339EkiDjhyu2Zg135cC9,38.85544622994793,-76.7414328016063,8c2aa8725b733ff,1.0,Upper Marlboro,United States
172,112LSpBtm7qtungr3qHpk416o8BTEw1H9RZcku4BfWFkcycXu6Gv,11988,large-jetblack-barracuda,13kvwEgwU9qtnq8ow8gA962JQbUDEEfWPJBKzKTVeoB1LJA83xc,36.09508856610563,-79.40251986228488,8c2a8bab24a9dff,1.0,Burlington,United States
173,113SGGQjXQyxJT6VpytBxQTFwH6QZefiWBMMRffiEMT15j9YDef,11848,rhythmic-coconut-hedgehog,14RqCF3i6EoJW6EqfVAh3udsfQxJpjMz1Jt8uAR5d8E7Bqg4e5d,24.181248023668296,120.63729236031801,8c4ba2941c859ff,1.0,Xitun District,Taiwan
174,115Kvy58p56shAZhfkMHipXhBuJzvAkNdN5ZW5n1wZ4VdfBZrhr,11845,active-jetblack-ant,14SwzA2q8REjD8vcxdvVLftnFwtg8uB3S5ZuokmWF1nDYbxG641,36.11428442321295,-94.14467821733123,8c26ed7a5044bff,0.93896484375,Fayetteville,United States
175,112DpLEGtWgWZmC2B8zTDUXvYMjP36YhXY7dp943tLR2BoznV37o,11834,agreeable-taffy-mule,13xCccFT3EP9gKtqw1JR78x7Pw6Xo78ePohjoqURbeJenkxUAMm,24.998662507254448,121.5290165702361,8c4ba0a5c6f55ff,0.7905120849609375,Yonghe District,Taiwan
176,112RC45A8KMF33Kfwhk39WM2T6K7ib7krUozt4BgVBnvqTymFA77,11664,overt-scarlet-lizard,14FWuge9Kqk8fx2Uu8L7XZUq5ds4Tkdu78J9NaqJZm8wGMk8VsM,45.559262673930476,5.9297061789864385,8c1f916c4c649ff,1.0,Chambéry,France
177,112Q9czwY3aXvDH692F7uw5JhpqPBHmF4ipHw47UU6QWQ4gitRJJ,11654,cuddly-onyx-yak,149wHVAwoGitwB2TVmDXiwy8NhZsCSsHL59pkpfCDBbskZTT6T4,38.87022159977778,117.34924581079936,8c31889a5aeabff,1.0,Jinnan District,China
178,11Mfx9qkURcjRnhE59rrnnBsF8GEywGdUSnDNoQarNxjFuurxKL,11627,cuddly-marigold-pike,13fKVtd8RRFWMG9C7dHmCVY37azM5H33wLjSobR6pHk2AiFhE5A,34.043432661127554,-118.2492043567218,8c29a1d751497ff,0.196319580078125,Los Angeles,United States
179,11TNpMuko1BPJYSuvFxtENCN7HraubgKkD7Xoa41PgGXdc6wp3H,11617,cheerful-rose-snake,14eTN5P2DVjVLvXdztAQAW4Q7ZbJJmGpHVWGLv4p1ubvFuXzWcB,-31.847046540060425,115.77403602174218,8ca726564b959ff,1.0,Carine,Australia
180,112924G9VnHvmJiioyjZyRDcjTiv5wzUbMFL7wxkEFaaFYQDTk6M,11573,silly-raspberry-corgi,14MedzGVrsF5gx5Np3CHgicru3erSVsua4QyR55TqXQ5D2PZC7D,37.800452147357205,-122.42954121402859,8c283082b3513ff,0.0757904052734375,San Francisco,United States
181,11RjbAkE7qF5XqvJj8WkKzytzNp8o6x5f5jpaSxUUPuk9BqxhKe,11561,stale-wooden-skunk,14JQQtS1vzscDYmNQxUd1B3JUSzXBFcXU3ukjA6hpGAihb4JNmG,30.173613529943395,-95.5125972506805,8c446c2484241ff,0.60284423828125,Spring,United States
182,112KTiPQA7jPJfnAi3mWNGHtPkJc68LbqxrbMJaJbQ9wAXksjVh4,11529,,,0,0,,0,fail,fail
183,11vLVTnQaL2XYoXfKWje2taFw9YYmPuXmipwkVNCekmUPcQkA6f,11526,bubbly-ash-nuthatch,14M9rru8UGfpTRx3S18HpKyMqip9h94PWRbHLGeWvXts3wQDeEg,52.998850480399355,-2.196910073910991,8c195cc0c461dff,0.76922607421875,Stoke-on-Trent,United Kingdom
184,112hSojUTkTGKkdwKD5LuCcvhj72ZDaXx9u53QavQ5knFmd7Lf9B,11451,,,0,0,,0,fail,fail
185,11Bh6s6Jm984Q2GPnDXj65qQG9o1MCCFzZTat4awVHSrU7nqodn,11449,,,0,0,,0,fail,fail
186,112Z2Z9UvDESgx6Bg2ZVbonWuHFinbp2XGRLANLCdoXyc3uTEEih,11359,huge-dijon-gazelle,13PDP2krdURT2gNe2J6RM2FAojkGPdXzouc1Qo88MtFfeUjWXvr,36.142463029012326,-115.28909771073027,8c2986a30cad7ff,0.3642425537109375,Las Vegas,United States
187,11azenC4wTkSaLwgpBYnjJSVb2tZLBbwC5FkrS9NFR2gBnG4wTu,11294,,,0,0,,0,fail,fail
188,112UmP2ncNrf9QPtS6GKqk4sF1Ywe7hbVnZYTCj5oMumWvoMGHrA,11232,sleepy-lime-pheasant,13wWXxdF3VpbyQsZXmFs9GjUSCY5M9DqniyCZcoaepy7FYV67tL,39.9457014231742,-75.2326299711285,8c2aacb2016ddff,0.681365966796875,Philadelphia,United States
189,11miHQB8XbP7QWM9PriwVUntq8LQrvHqq5xz7AWco8tSagLvmBD,11189,best-tweed-weasel,145tnUz5ztdVK2zahD3BthZ9BpbVPdfTv6GRJQsSGunJ7eUEdFX,33.41306080621562,-111.92019358835137,8c48eba4624c7ff,0.4572296142578125,Tempe,United States
190,112r6Rbx6ygY9G6AruK2Gs4Lf1LhHFJF952ZRnya8fTWxRmV5nBF,11155,,,0,0,,0,fail,fail
191,13Dj9H599iWhvGAZC8xHG2ZfL4RN8wgbbC9PT8gpoBGnikKs4ij,11147,,,0,0,,0,fail,fail
192,11nYv9im19cCpsGb9Srpbaf2HJwzu2zQtrESPPk5ZGArSZVXf7u,11129,funny-bamboo-pheasant,13ikQkQ7y4cHSoGzS25XULX6Zj7yNftbWSdwBPuLTHqRwKrXguC,38.55212278740389,-121.69160905674158,8c2832b661847ff,0.6918792724609375,Davis,United States
193,112tBmpxB7Kx7RnKLoZLhA9DHFDiSFYhXEp5DUqv4zgXDskqKTHY,11068,harsh-maroon-duck,14cNwrty21apB4WUV9aw66L2if6L2qfwC3rbtP1D4JbZNnL7B2R,31.266852218724726,-99.431187997393,8c489911c11e7ff,1.0,Brady,United States
194,11X7Q6XxFQARTT6RNQQtg4EzTB1tcbrevfyno1giPAjvVW8xYqp,11060,acrobatic-carob-goat,13s2SCJbWP9ZmGW5uULCehV7EJRDdYqLrmNCQCtoj5Y1RDerZAq,47.258933022469456,-120.06379962229694,8c28d69b480e9ff,1.0,Rock Island,United States
195,11d6Qomw3eqz9S4czvLBT8pWmWoipdRdpiVsEFeXAZJeybQtdrQ,11052,bright-clay-rooster,14HMxo3dDyQMFztZYKsPQYXgHhnQSbLDgXZghaZtoryT6kY75JD,40.026130531043556,116.30506036357338,8c31aa52324cbff,0.819671630859375,Hai Dian Qu,China
196,11FAJtGqQdBmzgh7hB2BNkAvV874pzQbYbQk8J9xr6TZUkUVBoE,11043,rhythmic-bamboo-hare,13ocSjXuyCBMKG2VyYzPCHskQgK8M5QwKvNJeq1Twe1NZkjbEET,41.64413747013815,-114.30319058240761,8c28b5cd080c9ff,,,United States
197,118BpnDw7fUp41ctwhQJTZDX8JZgWg5oM6Ln2uoj7q7wwkwSsqh,10992,sharp-coral-cod,14cNwrty21apB4WUV9aw66L2if6L2qfwC3rbtP1D4JbZNnL7B2R,31.283608058118215,-99.4271080743492,8c4899118d45bff,1.0,Lohn,United States
198,115jCjViQEUxvVdK1jqcvPRU3nPiWW2Jx9r7XCeEvK9uGf8pfAK,10966,magic-vermilion-osprey,14pRwA1sCydkeqJ1nxTJvgT8vVFU1TaefLdCRAAAPAqmCprovPb,48.86700111134984,2.533070094768103,8c1fb0935cccbff,1.0,Neuilly-sur-Marne,France
199,11hU5hcbBRQfMsc7hvtEYZVyWLHx2BUsHi8gEauSVdodz36LD5b,10902,dandy-wintergreen-barbel,14eUY3gvh2PJUMiBx1JuZATuF2womXCqLVw2mgVAY32rNxfNxsu,18.811956641372838,98.9542621842351,8c6482136cda1ff,1.0,Chang Phueak,Thailand
200,1124LZD6QDiuVhKQeKov4PNKGJFqpLBTQrTBaf8dGw5Hpogmih4w,10889,abundant-olive-dachshund,14fTqESF8oZqaTUcoYe3ukMjFDRYfumYoavbo8HSSA5McPgsQ5A,41.09805617437808,28.98069176553967,8c1ec912b1ad9ff,0.2086944580078125,İstanbul,Turkey
201,11XpN18fZa3XPJQqLzKTpyiCr2DWLVqoty8y8rzSoqqmNGFukTR,10786,hidden-fleece-camel,13yXTzV5uSDAY1Q8eU1SkWyQA5WPC2ocDes4ZXEyVmqtzu6wHPA,27.77249526381855,-82.41329953952922,8c441ad45c45dff,1.0,Apollo Beach,United States
202,112ft2sPrtLUHzXwa1RstxvZqcUTzqKeqgiTksmwLBZjkxuJTqGo,10716,early-velvet-liger,14rxtVKi9tn47aWVEkP1yw9ZNtoWVESQ6vxC6VqzU37pLn5phhZ,51.574578330386245,4.778280731072672,8c1fa48408a8dff,1.0,Breda,Netherlands
203,1129pehFYAR9SUb6Ze1JSxx29y2gsXCyaeTu1xoPQAph6ZeXQCbs,10694,,,0,0,,0,fail,fail
204,112nVoAbSzu78QBnvurfZQ5s3ZKAoGXs9hgPShdDAcpw8AdS1rk,10662,late-clear-armadillo,13MiAGz6xCtdtrY3XHKwxWDBUxfHAh3aay8NWdKvJH1E8y7Ghpq,42.693205370769704,-76.74151379960357,8c2aa412aa6ddff,1.0,Ovid,United States
205,112UPcUSFUux7v1mBKoQKYetQZuG8Suza4xFh6kQfvgf2Mhew9CZ,10661,curly-graphite-lynx,13pVXUATyrtegzHjZBSSh8CMbWhFJKeUEhACHoTNTNPLZspDmbJ,48.96765021014452,18.19087344394962,8c1e008d64f07ff,0.8333282470703125,Dubnica nad Váhom,Slovakia
206,11jVfVd3iU5jVA69EarEBZ8ED6Q9prm9V5r6AEhRDwwPg4zkTxQ,10614,decent-ceramic-parrot,14cNwrty21apB4WUV9aw66L2if6L2qfwC3rbtP1D4JbZNnL7B2R,31.283999521495716,-99.460476878789,8c489911da845ff,1.0,Lohn,United States
207,112Nyq8NBpr4W27cKGVHNkL8MjusVWm6jwZGnf93VwhyA3FRx7z9,10527,main-lava-alpaca,13atRQbLnGCXmXsTKzvT5cZPX8zj97cPPyqXZAjPuBDLJ1FxMYn,49.42689087891593,7.741254894944812,8c1fae49c60a9ff,0.6944427490234375,Kaiserslautern,Germany
208,112fXhECDYP9ygGvaxVSv7vsjTV1XkLUuRpgvSdNt3Z87rrtNCJn,10501,thankful-cloud-leopard,13FCxpxwgZAipue7UqXcm4f6HxcQLmvnvqBfryxRGJbVURMx2xg,44.48640245552681,-73.22361716062524,8c2b8cb5656e5ff,0.8333282470703125,Burlington,United States
209,112PMSLYNQGfPWHh9vf1uu2qCmZVJ1qv2mBwCDtjSXGhLhX1QYd6,10422,,,0,0,,0,fail,fail
210,1129VFkhNT5WRFRgPC71hRhTfHKFvoNGFG7jiyhyVvmVtFGnfxz4,10323,square-turquoise-albatross,13YAXD6zTKJnypBPRsqsdjmRscufSNNezpNwny7nbFBh9CT6QrG,39.99821252490048,-0.06398275853591255,8c3954b725b2dff,1.0,Castelló de la Plana,Spain
211,11wFnr9hfbfWKDj3U9NS4eSByifX6b6NKrh53hAHtCwh1SmnpbQ,10237,uneven-concrete-parrot,141nfANBxzXUgFy8VZpVnLATRemJ6Z3mbTa4iJykQcAvr9zF2cd,39.956690633608744,-75.3614767925499,8c2aac849a055ff,0.910125732421875,Broomall,United States
212,112nQJcXwUji5g68VMNCpM2EKjy9VVXX17EvFQxAauLMFWwuJ2ag,10163,warm-powder-starling,13r1piBRLgUozkFk5AmDcYddkAiyeZ1HbdH3xG1HAvgxEMBeQ4f,43.08745274654961,-73.78132579890932,8c2b89d423135ff,0.6666717529296875,Saratoga Springs,United States
213,1123BQ2nzYtJb6QKYmsPt9CN4LaxR4AgmoRMbQ6wgq5yAURAtVjp,10133,,,0,0,,0,fail,fail
214,118RtEtEUu3C9L9xvEzXCWtBwUhF2UHKZ8kCgyNQvgRZ1dbPca1,10133,,,0,0,,0,fail,fail
215,11x2mZ7grFQQ49eJKzvAo2bVPZwXATDzmYsNPx4XJz97GXX44Nr,10014,flat-daisy-cougar,13StoaEnP96iwgXSLwH7ddEQDcvLw5LvfzGozDFcxeADGcTL1TA,50.067119829693766,19.973320506925273,8c1e2e684c2d5ff,0.343353271484375,Kraków,Poland
216,113CHL8Ra5Uwb1dWc8baA5JDeWyJnTBKRwkFtLW3aGEU1bL6CYd,9894,stale-crepe-mustang,14HJokVd6W4hHTz57tRCzXvTdqfgcKTC4aJniWZZ8yP8fcC6Sr7,41.227640544835054,-81.38711731801281,8c2ab3a2020b7ff,1.0,Streetsboro,United States
217,113nEUEPQp3SU2z4faT1vwvV6oHf5Wxm3PK1v2QUzpXFnpafP4h,9893,unique-linen-bat,13eHeunxTUVWVDw3wmmzfA1fuD9ejHjQCTmtcLVh9Zs2BsgKDPP,45.64197700704839,5.86566423566663,8c1f9160ec113ff,0.5,Le Bourget-du-Lac,France
218,112GpBZdEQbK4rxfH2roGpRtL62i3fNACYM1My2qWJRWwAqoo8Yv,9891,salty-cotton-guppy,13JP8gXGj2Z7zYxWdSQYXbbsTXm5oXPA9S5BDXnAGLze4JC45Fw,-37.63657737925292,145.40080826553054,8cbe622ec2e5dff,1.0,Yarra Glen,Australia
219,11xU3HHV5EsLGS8FQCRZUiesLByRXxw8CF5R6mTgcbw6NPGjksg,9853,fit-cornflower-poodle,14cNwrty21apB4WUV9aw66L2if6L2qfwC3rbtP1D4JbZNnL7B2R,31.262208949215708,-99.46064709872878,8c48991030455ff,1.0,Lohn,United States
220,11usRESRzsTvSPr4gQ66rRSujzyofzCGBCVekJ6yLg9RKFhMLWJ,9823,happy-porcelain-iguana,13SHYpyCK79Yh33TXKyTmN1AETR5V9CnLXVWbP3hNr8UZcEwjre,25.567925273199766,-80.48703329821315,8c44a194e0d3dff,0.65673828125,Miami,United States
221,114b79B7cjmKQnumz47Hf3Yj8RXze3FSJmyJkra8QxUf27WVve6,9810,rural-tortilla-albatross,141nfANBxzXUgFy8VZpVnLATRemJ6Z3mbTa4iJykQcAvr9zF2cd,40.02031137195396,-75.36421865359567,8c2aac86ace59ff,0.909088134765625,Villanova,United States
222,11P5sUWc449HfgEBM3bg19TWNy9oM2BGBy1HottjkdqCbtHM9Dw,9798,sticky-blood-scallop,13WhbUJbV1YWUfXehJsbJJ8CKMSQ6yt4xouNtZS5k5eaHRRzS47,33.614282063303925,-111.75094530479633,8c48eb3620ab1ff,1.0,Fountain Hills,United States
223,112CUWLLnnGDp6hkutf3n75C9F4f2drbSrFKSZdZFyBEEn6nWAyf,9797,fun-parchment-octopus,13otaVeBA5yzVKRhUrDyZXbYRz2E66fTXGiUPbS4DYC9CnLYPpC,43.09867566187299,6.112492259951996,8c396825a3a4dff,1.0,Hyères,France
224,112cfjUgVFzNZ13KtfMkR4GVySdNV1ZJKRFXcC7ujmsqbCmhGneq,9786,fast-aqua-ostrich,14t7HKeC6LyM91AnCAKhccnAQ8dF5RHmJe3ksGkGdheYbF6b1iF,35.149582167007054,-85.05363602295454,8c44c8958c827ff,1.0,Ooltewah,United States
225,11qJViyQ5ccgXfL1SfYsawnjPqPGTjAcYJLRmpn4W1uVkREgkbn,9772,,,0,0,,0,fail,fail
226,112iat7TKQWRWNVTH24qkUrZsXd4Awy18ARvBQ7pvvXnpmp2XhdL,9759,decent-turquoise-bobcat,14tMfmPeozimvg4kAfJwz5T1b3KJ7RGU7NueghJD4iKUFMcJohd,36.15234522983992,-86.7909651529505,8c264d102d5bdff,0.19775390625,Nashville,United States
227,112ex8DJdg9FkTc3p8uqToV55Lp5QuJibAci97AQ8DCdDX2U1U5B,9754,small-cherry-tadpole,144NYxBHqftyCvKCknUKt2SKg4FeDsp1E823wp2jXEyN57DdCi1,52.649433992136636,-7.2514501511453044,8c1828c00191bff,0.8333282470703125,Kilkenny,Ireland
228,119dtYiaJXYqJAx23gahMJBv4F2WLCNed2zrBsjMRbTxgsvNPBx,9704,polished-vinyl-sheep,13tvbUFYEyqErjJf3hjRPmaSYpVjBz2SF5SiHm4gFdm32DAtkAq,34.20509690906601,-118.39746364597485,8c29a18913a17ff,0.26708984375,Los Angeles,United States
229,11oQbVo1AfEgchNAzinxXehEdq7b4SPX6NA3gMTpgXfDfU7nHod,9701,attractive-fleece-dinosaur,13ocSjXuyCBMKG2VyYzPCHskQgK8M5QwKvNJeq1Twe1NZkjbEET,39.87641877120601,-104.02694036564104,8c26ab5b68831ff,1.0,Leader,United States
230,11MqgKoc1iAcnk7MBqAd6x5w79TdVSSDwVLe1ksHagVUf2KvwNS,9596,feisty-sepia-yak,148idxXgM21uvRwjBksb8doWxedKJwc43LnCGe8y7uHKoSeiKvF,43.101145191785676,-79.13313788365261,8c2b9b3116085ff,1.0,Niagara Falls,Canada
231,112cDqHCbfPN5Prhn4xWGKb24u8Z9nW4rN4hotCKkRoEUcE3ZWt7,9539,fantastic-rosewood-wren,13Cb3ck4u5mCzfkZZQ4aaNrhUNQXGyFyo1oLNBBrA8z45nNHJZt,40.42555501940337,-122.40260432258103,8c28150560f67ff,1.0,Anderson,United States
232,11jTUHHMzDzoZ1ULNE7tH2WpwtAUPrdZY69YLpb6z5ar6dDCbjK,9518,,,0,0,,0,fail,fail
233,11ScbjnMv8C9sVs9GmqQhV3dvYgyjJrwPecbCoAmxWyauDY5fUe,9478,,,0,0,,0,fail,fail
234,112fuSfRtw1WkEUETkJcN6xw5Kv26qip6juXPoNDRM1AcyUTaVDr,9446,mean-purple-rooster,14SM2NzbaGpXHNRPgagUquofQw7VwzoMcKwVZGfd4Z4pstcq3RF,46.190376609141616,6.134197696990699,8c1f91ad544c1ff,0.4081573486328125,Carouge,Switzerland
235,11d7bKaq85WgTQAKgS8UbARYP6iMpfy2Dk9TfM6SEX4xwVfC4zs,9399,salty-coral-barracuda,13ZCx984mSb5xk26VfxAVdqZyFrWng7eDv7j6F6kN2xw3uN6HJu,40.70383659552394,-74.0103661624159,8c2a107281687ff,0.103363037109375,New York,United States
236,112JTU8j35Kuu2MbcWKZuBQW4g7Frfd1AANKhHCqNzPvDosinSbw,9398,digital-cobalt-anteater,13wLMWeDmEwS14tsapawSPuKgNEvLMkyMzTbyZknai6UKuS4U53,37.30860604290978,-122.02256087199116,8c283472165a3ff,0.280853271484375,San Jose,United States
237,1127stuftozgxCyoAf9NU2ei7yCFd5s3SR3ngwwbaGaGceQyEqAY,9384,rhythmic-pewter-dragon,14Z2wND342wRfoViWD8nKq1aoZtpJfk5d1JB2M1EUXZsGATon5E,36.10383851251826,-79.42135937424958,8c2a8b148a431ff,1.0,Burlington,United States
238,1127jNCGcgqddSGVGx6wmjTTKXZrM4Tfrfn1HC5UxZ2GitnwYxms,9380,,,0,0,,0,fail,fail
239,11tEc76h18VenWDTWR3F8Z4YS11M2BTfMuzLstBwRVM9nS7By8J,9375,custom-merlot-chinchilla,14tHKhrNgcYFiyLopRe2TJDZWMRVUHu4DosqBaCg83ENrU3XNSd,9.932351837883449,-84.09409022492582,8c6d693660eabff,0.8333282470703125,San José,Costa Rica
240,11knTw3seVkD1aj5BwXYMvRSgG4QbbYVhEF7bAj519og3Q4fsiy,9298,eager-mossy-swan,13ZV7NcqQBYnwbij6L6Q38zSLc7WXCJc4VnLnuHG4gGJGBAzvQf,49.444930902211844,7.732488616377582,8c1fae49c9769ff,0.6944427490234375,Kaiserslautern,Germany
241,112Nk9J71AiZKxmPrdp9AjuW95jxQKgHqbShU4zWzn7dhmFtLsjC,9279,deep-taupe-octopus,13Q89XWNVb7YZeYjeVA2m9Spmr6T3iGeNdhbNSzPngXTSBRNzTs,47.36219716514252,8.526942696021406,8c1f8ed9089abff,0.5562591552734375,Zürich,Switzerland
242,11D1e9mYtq9DwKyFBJ5YRogbbA8NNbhsmJMvQ1Z1D8aZGN8Hoyn,9209,,,0,0,,0,fail,fail
243,11Q2QV8srxWFSn5kzVgEWyrKK2W6fMzy8tuPu2tWjaYbNEqgzWC,9192,breezy-mossy-swan,142q65mZNNQ3evxUWQ6zpqXsjDwFerQjxYJY8FLHYknL8S2Jwro,-32.08647251987251,115.78524137420222,8ca726d514733ff,0.8012847900390625,Hamilton Hill,Australia
244,11mesDNZXn5ySyJbxnq7QW7zXauUKfrHajbWRg6gXUdUhL9TDJt,9149,jovial-ivory-robin,13meeqD7DLFeW5bDBgk57EKaTmJsLCMbSPwgHoBd8SyWqWBt3eU,47.73667733299568,-122.0307076760617,8c28d54867861ff,0.461822509765625,Woodinville,United States
245,119ET3bUt2Jc3kLNqVyeYC3wShY2hKAR5FjYUTagyNFyAePPBVk,9104,immense-satin-newt,13LYpLiFG2Bufbhue7pnDwt46ax84mLgfsosJm2YoPnEyWyuWon,45.77095390587978,21.306581615258814,8c1e192f2c8a9ff,0.5494537353515625,Ghiroda,Romania
246,11PF83kKSwP4TEo1jqNhxrsUywRFnJJou1ZinVMVVZsjZ3uGanf,9102,tall-grey-leopard,149GP5GmpFprwJr7UKVCVHjvyrkFekw6bc4VKU8c5M971HXDVrP,41.00581946908276,28.80879897308669,8c1ec91a12b47ff,0.4778900146484375,İstanbul,Turkey
247,11m1vbPaSkZt8v2RpDjotRq4zrutFa3f4M3PwzhRcifijaPsvor,9094,warm-brick-cheetah,13s2SCJbWP9ZmGW5uULCehV7EJRDdYqLrmNCQCtoj5Y1RDerZAq,47.25972680837138,-120.0835937386073,8c288965b70a3ff,1.0,Rock Island,United States
248,11otRF1x8r3pfNaS69mQqQ7CQp5FvPg2bRMEFvXHfG1QhUnripS,9058,joyous-orange-rooster,142xH5EdvSjToHw6aEXnz2sLnTHxPQuuzGiMgAq8HnW1EM4ApWt,54.943351295840635,24.012062204126956,8c1f40d0869dbff,0.5165252685546875,Biruliškės,Lithuania
249,112UvQez87vQg8eqFjg8qEQMDFb1iJp54hQZJJVrsAGbAt8vTA1j,9034,agreeable-mango-snake,13b369Co7HmNsQGd1BCdNJHa6vmwj9jCCThUFDUN9H31UAwwCY2,35.72069154516778,51.43980432270842,8c2cf301176b9ff,0.455352783203125,Tehran,Iran
250,11jvrqeY7EgqhPqrW4mGKYEUUN3c4tLHqmzUFC5Mfx84kbbWk56,9017,cuddly-bubblegum-corgi,14gUL6junnsaF6Co86qXeUeKoR8cHXoykqzgKHDV9EeiVo4vNfw,50.39654982117109,30.499278842633338,8c1e63ba2592bff,1.0,Kyiv,Ukraine
251,112UYGKDhTkxdGxGa8CMzjhJ8CTKHmDBvL8fCe2zPGVVYMh4qwyw,9016,,,0,0,,0,fail,fail
252,11LUAcqys2DwdfZstXzDrPmvSzoyGas56nuWoAE4K2dLQqwhzas,8982,dandy-jetblack-mink,14YssHPABskJd8jRTSftiLL9XTGf8zMne9LQR5SGg9jcYTt4iLs,39.97794273152745,-0.053253321677229654,8c3954b0966c7ff,1.0,Castelló de la Plana,Spain
253,1124mP2wPFcuB33ARMC9FpRLEBqckygZU7XJoWB7MYzCUTor6Zvz,8964,careful-currant-cod,14KgmBXLd9XBjijQynu1JjC8ywR51R5UPsDf6PFKbi7FC6scrrH,31.179541838269312,-81.38588289970322,8c44f3195424dff,1.0,St. Simons Island,United States
254,11QGx58YmQfRhLJvWoANZXYXt1SULY4TWDAKLzNUPAr2m9g2JCx,8939,keen-carob-rabbit,1363BDTZiYz9JsGSchJftCsddssPhASVaZyrBodd3GbyjxuMLL8,40.1044024465073,-74.84688482873815,8c2a13572791dff,0.4842681884765625,Bristol,United States
255,11QJVhsAnr3TmEjDpQBh8uG2YMcMcKm1LrfDQ4Dd8Cw9PBfcWrV,8893,nutty-daffodil-albatross,14rpjDW5WgRpNa38prZWcpxDND8QSRn1D9dd1gjJL5mNj8RTAeH,34.03719905848334,-118.24052889913558,8c29a1d75d595ff,0.1123504638671875,Los Angeles,United States
256,11Xx7hYA5aoyj8Kp6ohtJoZ1arzWk6kqKpUvm3GB5z8zNGi2RVK,8872,bumpy-bronze-sealion,14KXWdv1TztoU7QXBPk2RzpdtNn18v2FfxP4yJ8cj85fW2b6PwN,49.43143254760341,7.751066002413804,8c1fae49c2c43ff,0.6944427490234375,Kaiserslautern,Germany
257,112nqfAmXeSdorbDZCXJWkEbU3LM3RXf74zAjMncHwgXQYvN4QfK,8822,,,0,0,,0,fail,fail
258,112foayC6m5mkSmZ2hLRfkXXD6qvGGmmYiMMuj9TpYX6mD4KwBbr,8809,,,0,0,,0,fail,fail
259,116GQmC7UWgJBZ2oxXRnuT7x1vvacxYgzMVWfh77hj9vV41GbUY,8797,atomic-merlot-mockingbird,14Wj9GyiJoEMB56xuFnSsaqC9ofBExfDfhSRXM2CMammusmS4CZ,40.04315619668122,-75.35918353526071,8c2aac8633537ff,0.910125732421875,Wayne,United States
260,112KaKoa4RFCggEEAXJJzRrmPuEsDXJZhmmLWWL93QEuc1UYBQYF,8795,,,0,0,,0,fail,fail
261,11w5BAYay5Mrphgzg7mSBbvnc2YrroJAPGMoTfjMbXcu3rRTeBm,8782,large-cream-duck,14JAbRNtEQpv2kFpEdNfsaqFQs9hWe1trbDG7SbHqDBzdMCndL3,39.92669096088653,-75.18286443598754,8c2a134d2a003ff,0.172943115234375,Philadelphia,United States
262,112ifc5C1mnC7W9dc65G9TLRszYKHnb5FhZyGzcYNpu8AD8A48Fp,8743,big-hazelnut-hornet,14dubuZoZpdJDDDSSb233ZfABEa8ButPTpd4cLoDyJbJMmBxrwv,39.90467278560478,-75.2137546307724,8c2aacb2c62ebff,0.91241455078125,Philadelphia,United States
263,112umt7i5pPLE7ub8djXyNQ42zYLwrA2NVvWxdYE8D1cqdGofjGY,8698,huge-stone-cow,14RTNjZAntHxc25xojn6oK9GS5n1CFySCrJwdaU4T1n3hfNJjqS,41.24858411622627,1.8655726986213819,8c3946b45c2e9ff,1.0,Quint Mar,Spain
264,1123ySpWmfSdR5YU377VV5NY7hZ2GmNYePLUuDk2Rp1E1ynSFUir,8695,decent-orange-capybara,14qr8d5Pa5EoMpdkUUs7nhUZd9GLEBF1C7n5Rn6KA5a4PDrhhC4,41.25967602323136,-70.08862373685918,8c2a312c17ab9ff,1.0,Nantucket,United States
265,112S1ViQDmbPiGVRRwYc5mouVo5DRmZM8twhTkWaYEU5BarBChgH,8690,,,0,0,,0,fail,fail
266,112SHFdRAngzdzKB63hsyyyHEpWaLK3gD2MYmSDbL2tBbxGBdos4,8672,,,0,0,,0,fail,fail
267,112NL9vcFs3D4iYSdWWYJHENWyutEpcJ99ksE5hrb5TnAWAUWyrd,8665,,,0,0,,0,fail,fail
268,11NL1hA8HTxub1xPkPKcdyH9ajfCik2XRkYD6g2tyxkWywG9mKE,8622,dry-onyx-wolverine,14afFYQ6MbhDS3ENU8AmJ4KwW2igvUKbLFqmg25Ju3yKCwxfyqw,35.460821662440416,-120.69755261525366,8c29ad183ba31ff,1.0,Atascadero,United States
269,112kNM83vSGpTQtXZHsWHztfbRagMNBuChz3KQZvwm3mvdqPsTnX,8481,wide-lemonade-robin,12zRyoXG6xP5HRSM8cpLf9Sm6xfLYX6ww7RbijBiubhXnLm1LVV,7.624882063016787,100.0675622462735,8c651bc5d1181ff,1.0,Khuha Sawan,Thailand
270,11y6Hdxo85RaFgQkKtwBtkNcTTy9n9h7TgW6fYXU3TeDksRm98U,8372,,,0,0,,0,fail,fail
271,112Mu4Urtpdmgzw7KZBhmcx8jRx6d2w8yCU96K5iRiKjF4EUS1Lr,8371,basic-aegean-cobra,14KD7WJMf1e5JCvwnCgHE8FKEgZzxW9E3YTUmnRZvx7gSscDobv,48.97430315126409,1.6924078541805228,8c1fb442d7ac1ff,1.0,Magnanville,France
272,11z1FJm5fWSzgRYT3RKT4aXKYSYxmSfKRFQq7NJ3ViDXnPPR3up,8308,calm-white-sealion,14Q47SA2dM4EnwS2YMoGgJuN31Wz7icjdyUkw7KENEgfgPnNeMo,54.93250713449549,24.046220621727542,8c1f40d0b253dff,0.5154571533203125,Ramučiai,Lithuania
273,112aaqDQMgziP5cx9jpkaRdAjZDPkUMWZjBsZL9R5BPZKvPAHsWK,8282,massive-crepe-bull,14SM2NzbaGpXHNRPgagUquofQw7VwzoMcKwVZGfd4Z4pstcq3RF,46.35891160351248,6.143654934863333,8c1f91a765b03ff,1.0,Divonne-les-Bains,France
274,112hLYnHLvEQHYCtvzQ3QKBqLhQYAKWK3o8HujAov9kibzfuHezv,8210,shaggy-tawny-reindeer,13scNoXxgmWZMm5ALoTE7PrUCZbrqFxQiLF5TVAxkomMubUzrZQ,48.99731456023011,1.7372982957468377,8c1fb45587293ff,1.0,Limay,France
275,11UPELJ1GNaH97Z7pS6A4DVvpdaqPBQ7muk7eE7SS9zzPVdaSja,8199,agreeable-syrup-cyborg,14MhJGZar2NUrGocNvVY2cvGr2bniKTGhAUbQf6Yh9dSeNVBtBE,30.20042318570287,-95.51162807568751,8c446c24b46adff,0.301422119140625,Spring,United States
276,112oTznCKHmTQE6cYKmp5CDQUupQkXtufajH8AyaSQBzJkmHNmc6,8168,strong-crepe-rook,13hRr5Es4KrBWb1dHsVgj1WoJLqAG5tjcySzDb4CQas5KhPimqg,46.36487113102331,2.624948162487831,8c186db6c5541ff,1.0,Desertines,France
277,112sNbcNPFVVvcvZV8mxy73s4agskhUTyEXv8ECyjVNqGWWGZJ9L,8126,pet-currant-sardine,14kuUGKyN8EC6VC67UF57MTmZ7EocV9DptwADpMwwoSLcXVGSCn,39.97129552315067,-0.06037453258888053,8c3954b0ba6edff,1.0,Castelló de la Plana,Spain
278,11XgCrk3fKArPhfLrq3pruJUezKuggSMnrXSLRXTrQENk8GtjP4,8111,scruffy-rosewood-tortoise,13arjHKWCCGH4UHFtED46BK3LteUaQAoxvWKfM6c7n9KxWQW8HS,45.70610724029512,21.124985188286708,8c1e1966cb343ff,1.0,,Romania
279,13h4w7M5ugUbyEcxTkmQ8h18cdh5am4GpHXtuJcku4FMsSUziuY,8013,,,0,0,,0,fail,fail
280,112WZeJribdCQcQkPCEumZnsp9LgQxBGSc96jcKLPVJpzcc6dWrH,7899,unique-walnut-buffalo,14NDV8gT4sqckXjMxCMSA73Uh87iWw5EtxvTuAGR8GWyMYSTz3V,41.086809384715856,28.87359210775732,8c1ec91060253ff,0.3816070556640625,İstanbul,Turkey
281,112CuBDHZ2RkWT1JFDFFrkdg1EFFdaXwgkWmnimdLUEqckdGx7oM,7839,delightful-sand-alpaca,142Z9kurq7KaRgAyNJQBmXXWzfZEc5rdp2JVNFbLKhMbtsPJ5CD,43.105452200200574,6.11495624162136,8c396825aa015ff,1.0,Hyères,France
282,112uapbUvTPBK6LLuuGqNCq7iFqtsmSvcr4mNb7vWKasMgTn4wZr,7837,curly-lavender-dragon,14F5hQaYnAmayy5ViLteRMwwU8Q7u66RmMY1DrfVZgoyPFJWhdm,39.967192440961846,-75.20336390490898,8c2a1348b558bff,0.1975250244140625,Philadelphia,United States
283,11usaa5rMaR2Gknwkwg3goeBGRBGsKLhJc6VLE4YiG9uF9ENjc7,7830,,,0,0,,0,fail,fail
284,11T3XxZo1sNXY6jxXbxt2MkctFA7PxJKuxQA9NyLqsDzqjGTst9,7823,merry-indigo-panda,14Lwc16KbMD3V7yDLjUMB4ukZqKHoRcUdeBvYDcCBXC7SgEuvTn,37.918814083966645,32.63299793912425,8c3f6db8d30e5ff,1.0,Büyükkayacık Osb,Turkey
285,112PWJSXu8fSNsny9Fi152cZaeMdj1jn4ADBa6s2Pk97bDBbnPCu,7807,fresh-beige-salmon,14WFavika91s8SnuX8cBD275myU1vwXJbJdQmQTJRChxCSoCYEx,45.79556164216905,11.54329982267047,8c1ea4a8a6903ff,0.357147216796875,Lusiana,Italy
286,11TAk7DJw5GKB66jxAwrASovLDJhcQtWLNA6sy9D82NiXenvg5s,7767,cold-caramel-owl,146uTFLQhk37YHDKCeAF9KzGhtZtWjfeCjU7iJDMmhF2YBQYmXf,49.45455926001588,7.759363441744528,8c1fae4833027ff,1.0,Kaiserslautern,Germany
287,11tcTsx4CvtQwD4vdhTCKWyJjucm7NeDayqGw2DXCgbNQzxDg6,7756,quick-pineapple-orca,14GZzjw31EF7WLDA4YSGfTwx1DCC5zKdTLshdR3eKXfup9ep2YB,50.31798937312954,11.91824795837105,8c1fa9a9d09a3ff,0.7142791748046875,Hof,Germany
288,116w55DXCsy3RRMx65XGB6TkE8ZPqfSW8MsAhPLGiY83wJYd6JC,7751,sleepy-glossy-marmot,14AKN2qb4SnkkJvSDk51qxq94rqqEDywTaLMxDELekyyAxaKLxQ,53.56694516472636,-113.31049552271203,8c12ecca99405ff,0.7547149658203125,Sherwood Park,Canada
289,135ipdyLYtZPv91ibJgv4pN8Kw4nF6A1MXKq7PofyK84sQMHuXo,7738,soaring-ceramic-lion,13K3bR9SNxo1uLS5Et55i3hsRQADJkAEXvZ7s5p8N7z2v9g5ChU,55.0384979225003,-6.955279586335388,8c1825140554bff,,Limavady,United Kingdom
290,11caBN9nY6Z4v5tqYjHHrrziHmapVqqs5kzek8ifWX3tF4pJfTX,7729,zany-burlap-chicken,14RgtpB9pfmYQrfYPEJMEV4J4VhEQ5gH6N21UeoquGbDEJvDc6v,45.567532082430965,25.565195546951,8c1e52634934dff,1.0,Brașov,Romania
291,11Hd8GfTyg5SeP934z11uSHkKJ4m7izffDxDyU1iLqfu8u6kArY,7641,blurry-latte-bobcat,13ncWPg4qN2Xt1Xvje7rRTH5VxdwyXWiQUMhu3sGVdbGnhreWip,43.201874100572326,5.599064437695712,8c396805d2b1dff,1.0,La Ciotat,France
292,11wVxJqSNdMXBFhYVJ7j46R4KLEwfHrnKoyVA57EoELP1QwV4qZ,7588,,,0,0,,0,fail,fail
293,112C5u2PTvLVAnP7PwKwzJ4orFyCyFSDNvJQGYfkB6vXU7A8B5pT,7581,ancient-brown-cottonmouth,13s2SCJbWP9ZmGW5uULCehV7EJRDdYqLrmNCQCtoj5Y1RDerZAq,48.426642898434004,-119.50905363314341,8c28d2d90a31dff,1.0,Omak,United States
294,112X2kmNZrScJmfravRiFb6Jxpu3QirFm4s1WM5LZ3BMXemxpDaT,7540,fun-quartz-meerkat,13RMor7qaH8qs3PqPBbPhedhbsfZiJEf33qsvnUxRy1xeqbHq83,51.57324106827761,4.763091230668184,8c1fa4846a65bff,0.5,Breda,Netherlands
295,11J33UJuUoSGBxaMgXTYhMAMPDysp62pxhAjjYCA5LAWj84LyBG,7442,curved-seaweed-snake,13ZdjmcMQ3BKma4ePQc5NVQPJ2zXzJigPYCi24PLQiVsV2TbCCA,47.684572827392586,-117.45684178518022,8c12db77490ebff,0.5,Spokane,United States
296,112EAfhyF6KhVTJQKZ1HtXEVWDmZS5ipY1nPkibGZZh2HgTdbg2p,7413,shaggy-coconut-leopard,14HH9FfzKUu88Sq2myqG8UEqcPdRaxppH4SHtVzBGx5n3Hg6qGU,43.09072415169597,-79.0973825929705,8c2b9b31cb811ff,1.0,Niagara Falls,Canada
297,112bmEdrFyiNrayEs9STnLpBQAmdYSoeZiGdPcHLxAe9SvBHEjHb,7409,wonderful-gingham-dalmatian,147CHEaLmuvChMvzbscWMk4H2srZi4QQhqagfBnjhzHqx2ZX1Hd,54.92415160194661,23.990732117358142,8c1f40c24da1dff,0.4123687744140625,Kaunas,Lithuania
298,118ya9GWsFVh8R5WkAXyEnrG12kzqzzJyuFHeQsaigarWwffxBr,7367,trendy-chambray-swallow,14V3JA4RA7R2MRTuY1yT9BEH8y5skuA4PwcRY9Ldc2sxcZNNBNa,45.668641127931565,-108.78420341516579,8c279e22eb2b7ff,0.5,Laurel,United States
299,11ZTGE43vuc1mUVgRiYwyELZyc6ByDYfh22BVMWySP6AdkxssHd,7336,damp-flaxen-mantis,13VYAAgaeGU393iZ2itUH9V3r6Zeo5atgEPrDQ662KdMmb2XZKw,51.3770712414846,-0.3073810007576496,8c194aca69457ff,0.5722503662109375,Surbiton,United Kingdom
300,112Q2sHUGGMWe43MkpCbFAcAc7iQXoG26uH4sVMtrtwq2PX6gueh,7319,large-fuzzy-mammoth,13T6umNF1hTmb955BRbJKisNea2vzHtBMXmf3bP48cATpF4ttSB,39.9395747097529,-75.22225553119208,8c2aacb21d241ff,0.760345458984375,Philadelphia,United States
301,11qfjvY91L6WkW9bEwCG955m69RyfFoPyBnZzqbkDV3aDgUwjpn,7318,puny-scarlet-goose,14jFpAFmBLj1hJUNBUCXk34AWehgCYShs3uhF8TXAywWBu93C8q,13.828811777252636,100.52497919242496,8c64a4b851365ff,0.939849853515625,Khwaeng Wong Sawang,Thailand
302,11BfCYCqr1eCdtsPoj21eP1Rszq8YzyF2YbL5ehPvGmLqBZMKyP,7307,expert-currant-squid,14QB93GANakY4mMVET9Lhh21NU4W1EfseEmJrFrJMZtuNgD4wLv,43.101869580806394,-79.10466352502671,8c2b9b3026d5bff,1.0,Niagara Falls,Canada
303,112ELfFvPw1YrrrL673aHSWAdWPkb4rktT43AfZbmFpq1NZi4YW6,7297,interesting-cloud-unicorn,13pFET8AVAArmdMv5DKu8QfKvEHuJcbqP2LxjQxyh9SpUs8xFsH,30.22878016766668,104.2651033914572,8c40e0655addbff,1.0,Meishan,China
304,11XQc8jJumPq2rLbH1qKkya5VoCLfoidKkda1G1TL9ky9Fr4aBS,7246,daring-zinc-bobcat,14eUY3gvh2PJUMiBx1JuZATuF2womXCqLVw2mgVAY32rNxfNxsu,18.7981922203862,98.96596732492618,8c6482c694489ff,1.0,Suthep,Thailand
305,11FNnm1V1DooRNGxAe1tUCPbgqd6cRZ62JFCzzkDtTVq2YF41Y3,7229,funny-gunmetal-liger,13zJ2Tk4CHvNbnd96vKc7M4TFkjMBGukHDcY7ndCsC4MJqhLKJ7,39.85635991815244,-86.01211253908706,8c2a924d80e55ff,1.0,Indianapolis,United States
306,13PvSTgK5kxpieMRqByvRa7fFxUzw4svtXM9C3DmcZx8nKFCu6S,7095,,,0,0,,0,fail,fail
307,11d47WmMDChT5oPTQmMrmb6jMFZ5tManFq36NefpCm51u9sK5e9,7055,future-golden-panda,13VvTh2sBLwHTbXrV9GXngXVCszBK81R8Yb9xb3HY2MEMf2F2st,39.97023614626906,-75.26361694957956,8c2aacb26c9a5ff,0.755889892578125,Philadelphia,United States
308,112tfLmenFnRTsBFrF2hqBCeKKuq81jyrP6yo5cLcmeMQfHBwLjo,7051,sweet-ultraviolet-urchin,14fhsLvgy5qpoSrqr12qQv2YfrdCjUFk1FRe4u9hHgxiS325bcg,42.98643012281215,-71.44061904461195,8c2a305803859ff,0.373138427734375,Manchester,United States
309,11Amb83FEdzqDh8C3wzLHHNxQ8BZBvBakQpKbNDKMzCSF43oeyv,7042,chilly-shadow-kookaburra,13jRMeH9wcoB3ZKNXNCuB9zYPqpZZLHYStWJR7Y7TND2wmCoGju,49.44981716888215,7.7796662602238325,8c1fae48e7b29ff,1.0,Kaiserslautern,Germany
310,112uxqaUrQxQn6tVcSV5GWB67XUZKmcKv9Snwt4WWYVNY4h5941s,7031,energetic-tweed-tardigrade,149HDdCmeB6UsURUWCoY5UApofV2pBgKopMM86L7XAZwVm2wDui,39.97581428260769,-0.0523100284875151,8c3954b569a41ff,1.0,Castelló de la Plana,Spain
311,11QY1rTzas8cvnQuQpoaHdXoCtrFdFA4ytvHbXPiUyvAXrXdThC,7016,funny-ceramic-donkey,13oJsWNF5fhWBFcZfFR2jdAoMRWtQxFVzHFqjhPGdastBXUcmPn,34.03844363594116,-118.23574081060937,8c29a1d75c137ff,0.1123504638671875,Los Angeles,United States
312,112RMSnPo2bpJFdVoZAUxtAEYV9WuMTE6vw4PCgJeSbhuh56fG6G,7001,zany-vanilla-porcupine,14iFzQ429bvb8gFuwcwjdutbxQMGU1d18q1Wu6WFMegP7P1Ycu2,41.35021242486466,-72.10359720394706,8c2a336cab52bff,0.625,New London,United States
313,1121qUrurVifWys6zFzsRCsm7oTMkKRqNbPXk3sbNuEJ8ex9mtGu,6998,old-bone-swift,13wmRp1KfWapK1VKtQcfWrQsyaBRyQrwju2MSkKQoFLor3nEExe,-17.80439988142084,31.14941088781346,8c971985890c5ff,1.0,Harare,Zimbabwe
314,112PyemxzYoJLZRUbmKHUJKS39AUXxXyud2etcQMrEKNvF2q1X3a,6963,generous-strawberry-caribou,14WFavika91s8SnuX8cBD275myU1vwXJbJdQmQTJRChxCSoCYEx,45.810122698645216,11.55522504764783,8c1ea4a8aadd9ff,0.7142791748046875,Lusiana,Italy
315,11Z1Ud35EHcJkHcGQiVwjoUMB16fYsMM5k2vEDfrsGAoeMP23yT,6956,powerful-lava-llama,13zhh2ENhWWrX94SGvDPamJ5jQpUXNHMMx9xvHPYX6tjTaWpgqo,42.37911257354602,-83.0957764446474,8c2ab2c528755ff,0.4393157958984375,Detroit,United States
316,11cGgeycbda8c9DEDizJh9hPsvvVCxERuFC4amEHfGBrR8zfbDS,6951,fluffy-gingerbread-huskie,149Uj5dEwFLVpXNfbLXKh4Ee9vD87iZyQYrPfXsrk7pEh8nRtQg,51.50271641713736,-0.8524004585205532,8c195d388d9bbff,0.6781158447265625,Wargrave,United Kingdom
317,11rdShntHxMN5cDWZDVjFwvyTbghZZJLXdiBuProE9aX5ttfoby,6947,sweet-chartreuse-salamander,14X3uXMSff3EtesazugQrvXdhqRWrHsHNYPVYxYhFCwud3pwJs7,32.81767276179981,-96.86104960149791,8c26c8659cc05ff,0.453521728515625,Dallas,United States
318,11LRxWG13jj1xvWQhGMC1YkJu457BqcHyZb2WyHpKc6Sq6Maedb,6930,,,0,0,,0,fail,fail
319,11fZ98Bk6MP6WYj2roEzMho21Cpsx3GQaPsMWkG9vL6jdNtxDtt,6863,jovial-daffodil-spider,14h1jnyREQ6jjLdcDQXxe7apaMLZdQmT7QaeW6sudSBDzxJDx9W,45.559018326911655,5.977019702656808,8c1f916c53a91ff,1.0,Challes-les-Eaux,France
320,112qs1ViMwWGQBbjLVi3KEUbFHfy626thhHtGREfM51brmvXrLGe,6860,chilly-syrup-eagle,14cmLNsYVSbnrRgdnmP8DkgGZPwuiG6zfsyN5gSNjUihda5tZ2M,27.773633635858562,-82.37858527826641,8c441ad463a87ff,0.7142791748046875,Apollo Beach,United States
321,11Wm8cGU5ChSWxHG1SWvQdhjzWuvndA9JUaqCZpCbVMeaQf56gA,6852,fluffy-lava-opossum,1464xCsWDSiMyiRoZsSeoRDULx2ppq29UPEE6XcNPdKkxi4oFa5,45.900319873681156,6.127254964656686,8c1f912a5aaabff,1.0,Annecy,France
322,11ehwiTcHZjhdCj9BEvdCviB4kreJz8934gShTcJMMShbCeEWeh,6788,smooth-aqua-pheasant,12wtsGYm4vq3hc1HTMVvVx3Q5Bx4MFzHrUYQGYLZ4qtSb3gVJag,35.66761161286501,51.4326060850461,8c2cf30a12283ff,0.89605712890625,Tehran,Iran
323,1127o5cU5W9xRijsaBwr8uAzZrz38QuX5hVGbkBRTkHAoZG7TEj2,6759,,,0,0,,0,fail,fail
324,112uiRg1TPecpb5Yfu5yXEMGPyywvPM3iirp2xtUEBL6b636oqQh,6758,broad-snowy-sparrow,13MiAGz6xCtdtrY3XHKwxWDBUxfHAh3aay8NWdKvJH1E8y7Ghpq,42.72343971414894,-76.97689799060588,8c2aa41a30759ff,1.0,Penn Yan,United States
325,112XPUUjfk8388izj3GBg2NWMQ742AdMR6D1AsmnhbcqoTTw5Zh6,6749,fresh-indigo-lynx,13SSDEhzBDSDeWk4QSSdmcGAYJmuZMt9AVmbyefwFxN9sDuwHs6,23.9212104882586,120.66067514075584,8c4ba28c2d443ff,1.0,Nantou City,Taiwan
326,112kDsbY7AKr1LR5iRZZQZAssf78srLD9tCZ9NxrUY9cuio2tDzf,6730,odd-golden-weasel,13yuR2FpMfrDcGHc5482jT3CkAS4hs1FxnXepSiis9AKpjHKEXC,-33.736062312683146,151.20147793036284,8cbe0e2083213ff,1.0,Belrose,Australia
327,11wx8WwDXjZQLsFTXzc5jmowpUvWdxYhxzDLWH2HPDXHYfXMZoC,6714,,,0,0,,0,fail,fail
328,11sg4gbnavp4XHhZbxRABqWUWgCqSwLbQvGZaZhvBz5H1i4yvcM,6710,teeny-chocolate-ram,14E6bRMazJzsr8ECCd2zouvkbWNDLyVKSH7zoxuiRQRz4j9eyzd,37.30687455380078,-122.03018950295495,8c28347212c3dff,0.280853271484375,San Jose,United States
329,112M1acdwQt3f9ShhYQVZp7gkfipF7QkFEv8LH9FPATbP7YSYBYz,6636,calm-lemonade-rooster,14ehZkyXuWU2s8vpKUGesY44csMxVPqfJm4r8veS5EWdkuT1SRi,45.49743756359951,-73.63058130681628,8c2baa44375edff,0.062774658203125,Montréal,Canada
330,113nTquQSAPcEjT4qqghwnpjddEUTrYdQfDUfxKbbJ4Fy7J82iz,6612,spicy-olive-yak,14BrspHveWUbCagKS1FpoEdTH8C8yXE8B8fnU48PC2hBqKz3xsD,41.28801455879236,-70.06226538937224,8c2a312c5d5b3ff,1.0,Nantucket,United States
331,112ALKKTykrsLKVWCYac8ku2ygWcua8HhQYMYUkQ4gg4ozxBUHTG,6585,massive-sable-dog,13ptEUmXJGptka1J5wZo1EaLqQfQkSY9PquM8Mo6C89mVmQ3nCt,46.33103627962696,6.190748852817399,8c1f91a5419b7ff,1.0,Founex,Switzerland
332,112je1R21j5ZrMkjNSRNQnTfWGUmexH4jWcYUb7KuEeLTyTj8KV7,6583,refined-teal-cormorant,12x4ecEQbFunJmnZNcEyVdp5g36hyK96UPbAKrAXrEc8ErMzJ2T,43.10836490277383,-79.0828823263878,8c2b9b302a023ff,1.0,Niagara Falls,Canada
333,11Cqe95kSyTKY12dqHVtjxLzH36FNjpTmeUJtejm1gnLRYZYeYo,6532,dazzling-olive-mallard,13fE13Kk1vGUgVnPiBzev5befi5aqp5MVq87nfhqbuuHhQ12day,37.02427735556261,35.30641635550311,8c2d124438d1dff,0.360748291015625,Adana,Turkey
334,112wFM9K4y3ncx9ZKnbyxmYLWLDVLTF2ZiySDJFetttgmhRBz1Ht,6499,,,0,0,,0,fail,fail
335,112kkzZ9jffMhUcBYbAVJA3kNzs6AMvGDcqhkzzxSYKX57xhF1e8,6493,,,0,0,,0,fail,fail
336,112LD6Fq1BzAuP1y1xroWwNiz523kxRxYcU8MuTvnrQaNu1BNTgo,6483,modern-porcelain-koala,13XBh1tcVtSvMvABZX62pHTEztxiD8J9J5ReNt3bHdACiFcjWbB,47.46006125357977,8.598181846955546,8c1f8eda1103bff,0.6833648681640625,Kloten,Switzerland
337,11XspoSbZ6qLsjY2DQ3Sy8fhVtQwbuyTU7qYbZ1e6GCTSTnDhXa,6466,early-mercurial-boar,136JsTsKZfDZvhpuWkwmg4dBA3Y7sPuvnF1fbP6TsjJ69Q7gTkj,55.609849878029394,12.565008296544228,8c1f058134a3bff,0.39007568359375,Kastrup,Denmark
338,112CqzcCdSEZnzz28s6FRaNPuV9rBR2QsQjUPhnoEgt5HbQv3Zao,6463,glamorous-cotton-viper,13UucjbYc9PRE2adVieeyK9k4X3b9H6QbzZ8BKemZBWsnwnVVu4,40.45962638847131,17.26025101120396,8c1e8bc458d69ff,1.0,Taranto,Italy
339,112MyhcqwjrME6jYqCwSyKp4TnmQg2qer9UnX9bWhgBLLe5e4ZqM,6451,pet-lemonade-mantaray,14iSXmrRCbWEd2xsmow9ipFiYxW6MxRFXxwT7XSrsxwz7ZrD3TH,38.42136332530366,38.38318227166544,8c2d1a40a8015ff,1.0,,Turkey
340,11UNqjvKq24mpSciwrSFWo8genTi5bYhTNV6TmKAHJHwcSxahP,6451,oblong-powder-otter,14okxxCxT6caJt31AErE2kqMTe9EgyiofVRV9tjGt4w34rM3scg,27.98995597987328,-81.94783954374184,8c441a5a5822dff,0.75,Lakeland,United States
341,112Y74NQP9WYcR1P33Db44ydmekAHMK99iDvhhiUoiE7EKLPDV6Q,6440,mysterious-macaroon-locust,13E6ALJx1G7TkuV1t5G4jmWgt5ziM6wLB7o3a1pxa3hTes1iPCz,43.55185905948993,-80.24960127607658,8c2ab494021a7ff,0.4515228271484375,Guelph,Canada
342,112S47oDs4thW7qhhj3FDHRjS6PgU9z64Lyxga5gKGcgruGp7m88,6408,creamy-walnut-pig,13HN9YHCJZyw59aRE6RpZgc9vk95uqYTCKqaB9mCACYMZ84SVc8,55.60488009249715,12.577062392046297,8c1f058aca4e1ff,0.8620758056640625,Kastrup,Denmark
343,112ZdooFmKu7ZPNKpWGnfttnyxumQVZEjPCpkxr5mLXSamiEysSN,6342,dapper-seaweed-duck,13ydne7ossRH387anEAHn28rEuEXzajMX8ufzE4xYRhyJcYw55k,37.30494471783313,-122.02235993944207,8c283472175e3ff,0.280853271484375,San Jose,United States
344,112Zd88FYoWdejcAmsgPJXhhDA9ocQbFscT9kBTcYqiFavbY2ubQ,6340,,,0,0,,0,fail,fail
345,11hP1NKiLA9KiVTofA7DcN2VbHAXWnXSjXFMKeTaXwyxxGwmstL,6320,upbeat-khaki-capybara,14gC3qLpf45FXkzProfgwXiDZH1SHCkDrDZRT9Xb8uXMsnsr6P2,55.616332422718536,12.571975328042369,8c1f05813182bff,0.39007568359375,København,Denmark
346,112N8acPLJFQsYKdDc57CefR6egpAcjefqzDxZQnt81ndMGXKkc,6316,,,0,0,,0,fail,fail
347,112w9NmqsYHFiP81KiD8yahjG9viCcdx72ZRUKcXKePzpfWdoYwX,6310,elegant-purple-marmot,138W464ySCazzcuzs5joQZtB3SWdHri6NAJqcbcB4DpsgAj7i2z,36.32803617485225,-119.62567695374203,8c29a80d38ea5ff,1.0,Hanford,United States
348,12xb6fQeFdSc9zgvAMx6ynBfc7kxvTiuhvgHRow245MsNTrotTP,6301,,,0,0,,0,fail,fail
349,11tgCnLvTvoh273cq58q14DMRM11zT185dnXfLcdcVoWLqFzTrS,6294,recumbent-carrot-bull,13aUZ9WEJapguD5t1fomFx9RPeeCABLcEf9F3DugPjvmg69ySdS,-34.61914794540544,-58.4465467930495,8cc2e31002e19ff,0.73529052734375,Caballito,Argentina
350,11CFBQu3yDyM8ETq3hPNArDZJ57tiXuJV8xwxWuv66VfBQwDG9e,6270,unique-cedar-porpoise,14gA62AkiDfPr31VyhLfgpm5r4seHpbX6WyFVt5a5KY4dueAAx5,32.81927767372756,-117.16359658420205,8c29a40140c55ff,0.1478271484375,San Diego,United States
351,11N4WJg3dozrewVq8W7Eewa3QrTtnSzzmgLR7zZ9sYdp1coNeZF,6266,digital-currant-rattlesnake,14MsoCdazZ5JmoF7vFnzovcqCSCDPQCvovNtQ4wg1qp6tRn9WtH,36.36581068383967,-94.34048387315144,8c26ed4319011ff,0.9900970458984375,Gravette,United States
352,11A7WgkPAPWxGvDMCoqrqpUd3DK7Z9gcWsx6Nn4zss14ePK39Hf,6262,bubbly-scarlet-deer,13rQMRMkCaf5TyeuDi3j6tMetUpCMvoExCrehmW4DdNUTzq715F,49.62686039244751,7.516529339214788,8c1fa325ba88dff,1.0,Deimberg,Germany
353,11FYqv4vFBTQuAtheym4mJ6MKs79yfr9iaoQSZ5gkoLKssw1afu,6233,lively-coconut-fox,14AkZWRcynqi9JeieZL4W9Abw4eJVxfwjVzMKmw2YXHWSvwxCog,41.068605026689816,28.865806205268754,8c1ec9115ad59ff,0.27825927734375,İstanbul,Turkey
354,1123ttNL7kxBhDrRCytyXR5V1WznnK5jh7MZd2CQpvp1SXZMbfzM,6211,abundant-silver-crab,14oWqyWZu8L49y34ZSUmTYzrSbW3AAmT9v9B8aJpsuaX8RPaet1,6.194733195316149,-75.58994984310505,8c6618368766bff,1.0,Medellín,Colombia
355,11VLdofT24FpEWQ9WAKMXNRxnjv1PJt72kaDGZabRH6EsxAffBE,6210,wonderful-taffy-perch,14URae6dnW3HtPaRn45pyUqxSwzfLEzN9y32Nv3f2XvCvuqW6WQ,55.6208577031193,12.568978552195686,8c1f05813d499ff,0.39007568359375,København,Denmark
356,112Cggcbje3yS4a1YpfyVNt1B2DTYNqiFjwaNEvfJp6fhc8UPuLc,6192,brilliant-latte-bear,13SKgXSFgcmesgRjV1dKDzqtGcts4pfLVfMbrpNDU8xGdPyijgG,37.29976293423751,-122.01592543911995,8c28347214661ff,0.280853271484375,San Jose,United States
357,11zdr5NV2C87df7jyLharF7of4Eq68G3GLZqRHXnrMdsoSyF6tP,6183,sneaky-seafoam-fox,143EStAe9E5uvEw4zRmBegscfyLwLJ9q5JfVCZMapNtuTefCxjB,48.428905352435045,-119.50040701024523,8c28d2d9002dbff,1.0,Omak,United States
358,114NkyJgCXYtoVUAsZdMwLw7ShWAZwNT2QDRsj8WMQvtnkNYK47,6171,hot-ash-troll,14YFD45GkaP9HdcquLrZB8UXKMKgtCjK11Q89ToWw3yL5JUm2rf,45.772531575402425,4.830167501213682,8c1f9027249bdff,0.76922607421875,Lyon,France
359,11VVyWqWBXJsN5V9UhGdbsmDT3XXEhsoBBPz18douKfxfJqVb6p,6127,recumbent-raspberry-cuckoo,14Yc6Vmtg8n5AbjdWZkjXP5nuKyBTWC19AXZ8cm7mnMBo6oMXhz,33.87981487396239,-117.33641014121612,8c29a01547a37ff,0.677398681640625,Riverside,United States
360,11o7fc1zZF7HkYHjThrczurRPz5ZeUiSYWG1w12umFgjoc3v4UL,6126,keen-satin-anteater,14MuCtWdhHxT4NkQAXgNfrQVbtQdKY2nDdRPhXTKXp8PPwrbC84,55.617961961444735,12.567796307217522,8c1f05813c501ff,0.38873291015625,København,Denmark
361,112YXhzFCzvFQBjgDTR9NBoJjdoMusm7MFbUhhx2M5qv9ALWpmrG,6103,,,0,0,,0,fail,fail
362,1125n9uqWeMoiLJxavyz6Uw7PhPotSCidfA8YnjSocdtwTVWLj1L,6100,acrobatic-white-cat,13CYpXcUPJaexgkAVQbKmsiqY8urrL3TSBHaD97YkXa7a9xzYeg,38.885788640893104,117.34564185742794,8c3188916c105ff,1.0,Jin Nan Qu,China
363,119BZ6Euv78wq3AEchPyJC59Dx7KAULQpTKniwFhxg71ygx45Vb,6091,,,0,0,,0,fail,fail
364,1129apc826SdMmRMm49Az6T2hZLTtY4AGsrathZ7pGRXZpKvkGrS,6087,savory-flint-opossum,14gGGW7dwnzBFBtUPHSkouARd7GsEYYR9ZJ79t2u83g3igxNezY,48.90432572159402,2.5536902700542647,8c1fb0924cd0dff,1.0,Clichy-sous-Bois,France
365,112mmjZzbN44GSwrbxVeGUZJ6DPeVGo8ptpJXQKaBH5gxknz9YBK,6058,overt-laurel-kestrel,13Ws5a1Zi6P5zU1sNDTovSSFffzAeSqsmoRdNkCycZQbLwSorNH,33.884806008142284,-117.32064340694605,8c29a01561531ff,0.483856201171875,Riverside,United States
366,11bbU86PAqT43PijPwtmgHnFiW9R4akRPaqLvwdN7qZmrWtvfUZ,6035,stable-emerald-millipede,13eHeunxTUVWVDw3wmmzfA1fuD9ejHjQCTmtcLVh9Zs2BsgKDPP,45.64208194692241,5.8660583337069125,8c1f9160ec1c1ff,0.5,Le Bourget-du-Lac,France
367,11qhbswgPGKiz3dv3HNyCt1okoJ5W6zhMHhahpThNnSGhSWvcNQ,6035,dapper-linen-shetland,13RZtVj6zT1p8QsWwAz6mB25ZJUpXAaAeJtvzFt2FPjhaV934pt,39.976447761567655,-75.33511041023932,8c2aacb367235ff,0.9157562255859375,Havertown,United States
368,112kemhFicXKLuNRrHq3aFATWVatvvdMwEw7nghGUoNvvyJr52Js,6022,sleepy-orange-woodpecker,13VYAAgaeGU393iZ2itUH9V3r6Zeo5atgEPrDQ662KdMmb2XZKw,51.38018935458091,-0.32579252313647067,8c194aca6c329ff,0.5722503662109375,Thames Ditton,United Kingdom
369,112SD3B1rzpyuhi65vRmFLvnunRQL26j5w5nYoRGBYXP4GsoYirX,6020,bumpy-orange-sloth,139LTJsNfNf18nyDcXQtWdhDcy1R78vN85Ey2QRCkbAjSeaigcV,-35.203088203157506,149.06270583226853,8cbe72522af13ff,1.0,Spence,Australia
370,116dUCFr4FZ2iRpktp8XyqbApgEAjyLHcwHpdkqLVTzuEzkvukn,5993,digital-carob-rooster,14B2T8XirV23Lixys9XBLS4DaZiBA6svCJdkgKb7mMiUgo8anxj,39.98259021046537,-0.038276704765190496,8c3954b544665ff,0.4444427490234375,Castelló de la Plana,Spain
371,1121p8Jnk3raSFZrzCE89zHTPGbJW9Xrh9XTppY3rfCfExRPNGnk,5981,,,0,0,,0,fail,fail
372,11Fx1wCRgJMig4yZjAq8j7YqgaazYT5pr9tVQ8KMjoS65yunr3C,5966,electric-lilac-swan,14SpTosiAayTaMmQC23Sxg1N42PJZfeUmAxX2ByByNzWNZkPTmd,27.81984713367851,-82.3278230862153,8c441ac2db121ff,1.0,Riverview,United States
373,14kXULgJ4N9S5czsykxTeptVFAa2qcTGHAGeXPNdyBNBaoLCrJw,5951,curved-peach-skunk,13yXUyLeSB14zxngf5qAPH9dDcB1VJsypzYUzCyQS9hxBzQA4mS,45.35693968982716,-75.93569713031792,8c2b83aa58d27ff,,Ottawa,Canada
374,112Lq1897mf7H3oqbvETUmti1qvk7KscVdqqacSCnTFbxHE4Vufb,5950,spicy-charcoal-hawk,13oE4QsfY3rT2zdN5bahkyP1DJDMRzX1yG7KFxDbUrtRmNgzNGx,44.30176154689543,-88.26704861796125,8c27434d644b7ff,1.0,Kaukauna,United States
375,11PRUzaqRYnhJhPw6MLuvTLLFdTssS9iaAwAeW28Sp72HcS3Fqc,5942,best-lead-sardine,13oE4QsfY3rT2zdN5bahkyP1DJDMRzX1yG7KFxDbUrtRmNgzNGx,44.30480304724047,-88.24603325460022,8c27434d6a229ff,1.0,Kaukauna,United States
376,11FrdELU7F8ycKRjiKb7Uo6B1DFQSx4kpQorx7Azggk4cbb9cWA,5921,quaint-cobalt-mustang,14arxHpxAi73Xsm15i8qbaavkfmMBcsC11j2Km9D4EshfWqx3Am,49.42296938360084,7.739357491383396,8c1fae498d35bff,0.34722900390625,Kaiserslautern,Germany
377,112nTq9rLEZRsochvEBco7ki25CsGqTLBTNsrjMwrmp8Rx8NiCmL,5914,joyful-champagne-manatee,14YHZLZGkkwxKbAiJ1jtw7oCNnci6CEbhAVKKAghRPpMAThQgQY,47.30950029650507,7.971556795619893,8c1f8314e6325ff,1.0,Safenwil,Switzerland
378,112YKrzzZgDtaXH3vYdfQUGfSeUfRBcVZcEwvYwdi45dN46jk15h,5907,,,0,0,,0,fail,fail
379,11kbtHHgT6P7PmkrKvMWCtZYe6T29QwDdhcHGA89FjUhuqHUB5L,5899,blurry-goldenrod-rat,13KCyZkqsvBHbyuWfJ4d52fbK7A2T5Np8Azp3UL2v3uWDtep9hv,51.00063149906285,-1.3921303282633528,8c1959105cc3bff,1.0,Chandler's Ford,United Kingdom
380,11TKfpbbdJCnyYWKK7oCEp1PY1W48o97rU6eT5wbmdFN5LDuWyG,5895,zealous-ultraviolet-monkey,13SSDEhzBDSDeWk4QSSdmcGAYJmuZMt9AVmbyefwFxN9sDuwHs6,23.930679152261202,120.66673282990097,8c4ba28c0584dff,1.0,Nantou City,Taiwan
381,11M2Z7rVUtKRr6EKoaxcZRX2eSDkCXmsZogDx7Ax4RjoJHcnR3x,5894,early-heather-giraffe,14WFavika91s8SnuX8cBD275myU1vwXJbJdQmQTJRChxCSoCYEx,45.80543030615921,11.547606016701721,8c1ea4a8a0e95ff,0.7142791748046875,Lusiana,Italy
382,11bfKEz1s1UvuGzrozzhAJKcTMYMnHxmkgeF4R4D494UxmkYFud,5890,decent-tiger-mandrill,144otAeNmNVEJ4H6jE9QdVp8g3tN1VogUv83BMmhKv3kHycFDeh,45.428840715120465,11.776736545096181,8c1ea42d0ccc3ff,1.0,Mestrino,Italy
383,11KBaE2Wh9TKKoP2gMMiMZLMsq8oXRYsmGEnu137hFHaf3kFUYV,5879,fluffy-alabaster-sealion,13HKeEUf8RBAUKFP4MAMSDxd38b6ezjFd3vtJCT8MhPHeDvk4Ba,55.0198090808984,24.072786978670546,8c1f446dbd93dff,1.0,Didžiosios Lapės,Lithuania
384,11YCxNEGHiyb3gDdd1RWTqReDWkk1ZRSEwJVdEiLK2rgJY35hTv,5875,rare-paisley-dalmatian,13SSDEhzBDSDeWk4QSSdmcGAYJmuZMt9AVmbyefwFxN9sDuwHs6,23.9197193022186,120.65284443496247,8c4ba28d5a749ff,1.0,Nantou City,Taiwan
385,11Nm8tSRPqtsQY3TJviEMcfk54F93D2oUuTpcx5xAeWnbwYX9U7,5837,loud-opal-alpaca,13SSDEhzBDSDeWk4QSSdmcGAYJmuZMt9AVmbyefwFxN9sDuwHs6,23.925907725544548,120.65767689235031,8c4ba28c66295ff,1.0,Nantou City,Taiwan
386,11d5mNJY1eUjnYATVQqKwVbWNa5mHYeKJ2HugZdLbSFrvmo25ct,5808,suave-wintergreen-finch,139PyXX1PzwfZcoarNUi8wWobTCdvvJS5tq5m9Q1mNnvS2Bowa3,41.51957526636758,2.3589618636581267,8c3944293db51ff,1.0,Vilassar de Dalt,Spain
387,11vPRYNooYPPk457ATcdiwkYbLpJXe3tNaYF6bX774xCaMnz7hg,5801,,,0,0,,0,fail,fail
388,112D64A5fHtKMAicXGaW3huvPdGSuk5vXb44UCStMCnaHgE4uxbz,5795,ambitious-porcelain-puppy,14ETHRxj6mdUohqDSqP3MUXA9Ls92Jmm8UdCJLyVfjzVxmd6Qkq,33.248208758429975,-84.26332311097455,8c44c19ab2f29ff,0.5,Griffin,United States
389,11uRSeTnfKHgRYvVLi7RQxLSAaTqtVt3UdCxC4KnZ2aXPFtSNsK,5794,smooth-basil-baboon,1314HdtGjo13SCwUBzWoV3AoGJJBBK5DRn1xrCd4FiMka34GANC,39.982624760309356,-0.049132962853739505,8c3954b092091ff,0.6666717529296875,Castelló de la Plana,Spain
390,11nU5RDRpK7Xg4fyxGbWPvwvSt8kuGvd1QQn5bGYA9L5FrfL8hW,5794,funny-felt-wolverine,12xFCThgKcLGq7h7brzDdTfYKH8NA8gHs8ZUecLKBgfj7ty2qoG,41.17550425744191,29.002154383981637,8c1ec98d13213ff,1.0,,Turkey
391,11g4wouwv5QqDvmq9qASEpbWHiWEHGA4JakpS6BZBeX5giWTiiL,5783,,,0,0,,0,fail,fail
392,11A4US6puN3evYzS7VC87HDvhZkboTRKmu92NhxnbPHzC1XPvUU,5780,raspy-orange-horse,14kQrPnxRn1jMCNsUKQn58kymnZDYeCDfGJGcppaq6bu5vVj9vW,23.937666324792,120.67239275270322,8c4ba28c01a31ff,1.0,Nantou City,Taiwan
393,114CVckhMwZpzW96XGM5z7cqyd2w2fjRResw6M5koTFqjg8GMFZ,5769,mammoth-rainbow-cyborg,13TsPg8BPVW4Fq1RDvK7RSKBTVv1gXxd65HbVXdKZC7bXd8UYot,37.78519105442765,-122.41767056642978,8c283082b9b6bff,0.10089111328125,San Francisco,United States
394,112uqFSr7KD2kmvjyEQtvLUVBH4sh7w6V7HwdZUez7yCjPY9TiXp,5755,joyful-ivory-fox,14Wi6uV6yTiX6zcErEhZoM5KG1WDdkULPP1UoYkojkVxs1oDm8F,45.71330953525075,11.722802970292113,8c1ea4309a0c9ff,1.0,Rosà,Italy
395,112Mamtuh1uVngnTtCbQQB1u3Wg9DKuEFg5RdcM7oSPt5JqBXN1q,5743,massive-lilac-quail,13eXxXhL72GrwqyzjJ3LD1TnpVLUpBiJGkBAwhoZocT4RYxWaNB,-37.791662280622496,144.98072578462308,8cbe635445637ff,0.89605712890625,Fitzroy North,Australia
396,11oybvJjNEG2LBsiNuVgLL4QMcEBeuuPGQi75c47DehhYMMM4Cp,5741,petite-cloud-koala,13DKPVZUDpw7ZfN87tNKBkRgEWNa5FkgncD511PZjU1s7bYYsQd,32.98150653209214,-117.11619751303567,8c29a408b0035ff,0.5835113525390625,San Diego,United States
397,11u5hqbDEzJMeP38BPkgR1tjkz6e5w3m82gF9CZgKsbtUkKMLjc,5739,,,0,0,,0,fail,fail
398,11iM1W6A3Va4sPTpyTNJkbAwynBaC4LS1xCht9ooQz7VkS9kB5c,5719,polite-aquamarine-koala,14s68vLuF53EbYW5GYBgse2KPqEM8XEoDFAWHF23PCUGcrJhscc,38.067564869549756,-120.18856965853158,8c298d849a031ff,1.0,Mi-Wuk Village,United States
399,112CxdKw9DrVoyPjzq5CKVwrTcCJ8ThbnTKC82Ss1LeT89aSURmn,5665,lucky-turquoise-okapi,132Q2pc1LhzAbMa4uoFStdNHGtNBYD77Zq6UceyveZsv9RHGSE2,44.29666150703057,-88.30670507571398,8c275cb20b0c5ff,0.48309326171875,Little Chute,United States
400,11d1ZcaP1BCiXR6nejyLXn7eyVreW5roAzNwHMGSLbF5ji6q1ZZ,5650,docile-bone-pony,14WUFBB5shs9jxYDhD5P6Fp8puwVnungk9Yj6aCmhDWSpGsr76i,42.38191152270367,-71.12643354582362,8c2a30670a683ff,0.4272003173828125,Cambridge,United States
401,115UJ3duHvSadqywji4auJSpNLenfEqHa6yYrdVSD8d96919vka,5647,bumpy-topaz-lemur,13SSDEhzBDSDeWk4QSSdmcGAYJmuZMt9AVmbyefwFxN9sDuwHs6,23.93022530224485,120.65723554340047,8c4ba28c63b25ff,1.0,Nantou City,Taiwan
402,112mvVr6uFTJMHiR2JUWSF9EUgwMB1VLrgcJuNnn2BydbnDJA7qN,5638,able-holographic-skunk,14C6rXFMw4b2sndqF199KaUNVBLjPnpFc58tDWwmNj2dApDEDT5,41.26505494002955,-70.10724208777991,8c2a312c310e5ff,0.625,Nantucket,United States
403,112jfDzS5DnBPewkVWZmd2USxcqyCWtUmgH6QSHsztfctYJ59wWX,5630,jolly-topaz-copperhead,14QdT3MVxECyoy1UipyyAHyDaFUv6MsTa2fZrrGd3FpA8hN8Muu,44.29012379383626,-88.30629863924958,8c275cb21da67ff,0.5175933837890625,Little Chute,United States
404,112SL3Eb3gTqZBuSpKUBCQw4dD2PURqYa2RmFL67zdmYqrv7nftf,5627,hot-chocolate-finch,149vgFfqZELiQ9YPcJHCQauACRQWe9jpmxvHQ41f3P1amateFaf,28.042499737311484,-81.94315474064581,8c441a5aea619ff,0.5,Lakeland,United States
405,112GFdASVwJbs8hi8kDojGRpoRx2YgCxSm42D9nLwieAQ9SSdKTC,5623,cheerful-tangelo-bee,14MVN76vSaBnGvMsuAJ2CK9ubjSU1u57c4A6jV5K1oHZurVLacM,38.955422250083856,-77.4107406892949,8c2aaab149827ff,0.5722503662109375,Herndon,United States
406,112DkA6TkyvcgtzeNW6avsFzywVhCcfhzGCKMS1y7nmi7ih37Eg2,5617,big-walnut-iguana,142AdkR1qY5j5XJVhXb8G4aEn8ig9RrGBKjCCTbQUnwb4aFyZVs,34.223626466205836,-84.13485394936177,8c44ce92ab6dbff,1.0,Cumming,United States
407,11524P76vVNZRMiAP8Je5Ji5iMucr9cak11EsYQXvVebJCP2fWK,5589,mammoth-walnut-shark,14PaUSLRoVbZAF5Awi1hESZQin18f6xM6tAbSid1yy7z9wEqStj,51.79173311822706,-114.09656078863912,8c12ea1a10c6bff,1.0,Olds,Canada
408,112MWRMuv7qUn4yrDHYgJizUDqBqN5HJkG3MPvkLiZrcsVxgErYs,5580,bent-cloud-kangaroo,14FbuJE8oBYUjxi2EJpdPjb4zkELv2gLrfPjnRCU2ezxQRcBqHc,19.6192676719457,-99.22314719105425,8c4995a1a571dff,0.86956787109375,Cuautitlán Izcalli,Mexico
409,1129uyh82PH5Fn7Ufe7tYFBBGkTVMUqgHAgaafewSAu7d9m3X3Ds,5575,rural-champagne-tardigrade,13YAXD6zTKJnypBPRsqsdjmRscufSNNezpNwny7nbFBh9CT6QrG,40.02487135724751,-0.004152197223955685,8c3954b7128d3ff,1.0,Benicàssim,Spain
410,112bhttoiQarf5YMKWFptHnN4jHHUzZYjsmFaJsjMwEaz6SVvujL,5539,,,0,0,,0,fail,fail
411,112bpcCFMX5P3G25NsD5PgZVV9vxcw4Sv5gDfvpbx7vgyW2fkq5p,5538,raspy-boysenberry-bull,14SphVV4hRmo88XrFbC1Wk7FFhn9jd5itXTAmqMuAY44yquifLL,41.50574647114326,-87.46700555824124,8c26640abc083ff,1.0,Schererville,United States
412,13QV1hzcthLwme2yCcchPWLBradgdqpuJcH3aaBdQ9YPqwWv5a6,5535,,,0,0,,0,fail,fail
413,11zD49XfFCKTGKkqv7L6FUxuCRemxpcYj189yTS87RR1hgDW1eD,5517,spare-myrtle-koala,14Jc4Xm6Ta6FQ6C32SFyCgwnrfTR5hHjr6kpLtL9Wwatufyuqwi,44.9295488617614,-89.21168657962957,8c2751b6d4201ff,1.0,Birnamwood,United States
414,112n31o5aX4NYH651QEr6zsXaGFUMYVPHoyx8MYYufY9x4hjruHD,5508,feisty-lipstick-turkey,13WET5u2QKhTFfipQq9mUf8paCReeprzd528VMbjPbUAY2P65pc,41.836291628600506,-87.96981318527762,8c275924ed925ff,0.49261474609375,Oak Brook,United States
415,112J5SxYULhYqzqDeU4CefvAatWUqMLkLtA1az8CTQnm1gW95MA,5505,slow-heather-goldfish,13bKqV4KMLnLHrC48fjfVxG8oFA4C2pEjvVU22sjzWCon4R3KzC,34.19860911039701,108.90118263135535,8c40885ab7485ff,1.0,Xian Shi,China
416,11vheLrwTc27TZdYX1N85sYrSAP3b2wrEx4g8WadxF71nNmsYKo,5469,cheery-smoke-cormorant,138DJFtLTWhWxAcjm4rZjHfQRwXp5mDdnWatYvgVGSuDqJzG2k4,35.32944823542142,25.1185378232594,8c3f73c561089ff,0.7142791748046875,Iraklio,Greece
417,112NfxyLkqU2atgRhcrV2dK8QVFpX8dftYGqLWFYyLhuz1ZYeTrA,5450,,,0,0,,0,fail,fail
418,117ph7FmcBktUKEs2fxyYcE75tBpm1AaaUG8GgEuGcJi1KNMvqH,5449,dizzy-lava-dog,14d3TzmkmiWqsVxRmmWD3agxox5GQHPJkC2Kq64af7TeRdWCsnd,9.108420538480768,99.31506401080522,8c6435493c6d7ff,1.0,Tambon Makham Tia,Thailand
419,112iq75L7YE7t4DEsaSggqvWiexyUnZHaBqKJhXcLpxaKLDitom6,5441,petite-eggshell-raccoon,13F8UWHnso6NchfiFz2hKBKah2NZYTZ2onbi3TutZichz3hoYvT,40.495483277308026,17.6477843423769,8c1e8b160593bff,1.0,Oria,Italy
420,112Hp5jZjLDpq3FYK4Eu2oDmAhNQvjSja7efd4pvxmyXLNMabL2a,5416,bitter-boysenberry-walrus,14exbowEpQkNs6FBmYEU6ZKDW3TN5v6s9cDiQ3jJMTF4BXe8Chc,41.06567309599866,28.8529482234194,8c1ec91150a55ff,0.4173736572265625,İstanbul,Turkey
421,14Dv5xVyRVXxAWVFGQwhZZFHz8Vi3u94m2WX4gMqC2mSkEW5J6W,5395,prehistoric-topaz-whale,13K3bR9SNxo1uLS5Et55i3hsRQADJkAEXvZ7s5p8N7z2v9g5ChU,55.0384979225003,-6.955279586335388,8c1825140554bff,,Limavady,United Kingdom
422,11GtT88Ys3nWgCzWamm5CD3D5DNv99EPxtMcu7NtoPC87j3qYFJ,5377,jumpy-boysenberry-otter,13YjEG6CJcdHvgmjEyE4gk3rDK8AEQudpcoY9qLL4pnUEa68mLQ,39.981968099553654,-0.03819470941456368,8c3954b54471dff,0.4444427490234375,Castelló de la Plana,Spain
423,11fbPNiWoBunjx3GWc6PF5bshEXW2nryh1SKS4dUxKBrRNqAiHZ,5359,round-mulberry-falcon,13HRaL113EwsZUSDYE83N4iuQJznoiezmB7KoY68BcS2K3fDWxj,51.57624565148042,4.762886608097516,8c1fa48447833ff,0.357147216796875,Breda,Netherlands
424,11U45urZ47yrz8xYaZYXaQE7X4uHobvXF41CGgPAAv6HCUMHGB5,5357,wide-arctic-pigeon,13W7VLz2BgnWNjXMKwxgEUzSmEjTbHVqtEdMAhjhB5NfsWGhKHs,42.02174287872359,24.00250870563899,8c1ec03956931ff,0.7142791748046875,Velingrad,Bulgaria
425,1124sTJdY3rheW4r9UdXtj5GxcuVaYVAUrrNwuuruHLJnA3BNpWx,5354,lucky-heather-huskie,147nNB1kYxMCMWkVdjFxiXWWCqkCru3imoa5Q69C1TXMCmBMnK2,39.13252008878395,-123.20938296805726,8c28316abb5abff,1.0,Ukiah,United States
426,112gNcCZXQzyCZJQMrpSUwLvdP9xiwDUVMfk7843JiaF6qQxNutz,5337,feisty-foggy-turtle,147dcFkdwrb67nWBGzFXYAgepA5ocy6ZSKDS84nD1DZWcWrJbbi,40.00461838563737,-83.17472093497673,8c2a956929355ff,0.36126708984375,Hilliard,United States
427,11cf5fduPwhdwyVUC3NywJMAuAXm8ZH8xP2L1bNjGVKVFeeP5vd,5329,innocent-misty-shrimp,14WFavika91s8SnuX8cBD275myU1vwXJbJdQmQTJRChxCSoCYEx,45.8021101338297,11.548644810093842,8c1ea4a8a7403ff,0.23809814453125,Lusiana,Italy
428,1189d6zcPQk1RUew3deB1sf3w2XfFmXtKwh8LYEMMMpCP7ZtUom,5312,rural-pecan-nuthatch,14JYUg3cR7EQKa5eEMwVrnxyxYvQFt8AdC9EauR6rjNQas2WXkm,45.78295348302063,11.654861703325393,8c1ea432ca551ff,1.0,Marostica,Italy
429,11WdXRmfRetp7rMyr3soPXq22xVjKBYwAEz8SRK1bPZkn1yM8Ay,5309,sleepy-fiery-starfish,13LZFJ4HEbLc6Dd7bFMwT82AifDsaHcbppLzvKY7GkAm2ZRMSWk,45.896197986894066,10.863263235749384,8c1ea48956281ff,1.0,Riva del Garda,Italy
430,112gh3ooyNe1dLntJDD6RdMTHvb1JxmTgRN5p9Hvhn1WxUaAqgdg,5245,sparkly-ivory-hyena,13Ewr8AU2GuTDKN1JhjuJd21Zds5RfBEANhnmD4okZWb3hRbcze,59.1881300396175,17.84209329688673,8c0886795581dff,0.3700408935546875,Tumba,Sweden
431,1129b4ceNXzW8RWg8jejwfiqZZv6RFmDHzK8JeNzuRPBayv1c26N,5244,generous-lava-squid,1494aXLLuwAoud4fFKGDsYnd9vMEJhkgVK72VxQajJG1keJL2XE,38.835977565633044,-77.18288013709471,8c2aaab601281ff,0.572662353515625,Annandale,United States
432,11KQowQXwohjefuMLbsHBGNqDDQcZYhTz1tvWQMjqqHyXp9mF65,5243,clever-sky-aardvark,14tJQTzpvKkygabxVYY1grSrpxobtTQaHExz4pXLewrijV5KtsU,47.353063891943236,8.03866347909738,8c1f83ab664abff,0.444305419921875,Oberentfelden,Switzerland
433,112uCKZm22kz1B23rTHoncRfhrcfAvct5ZhkRpQD9jzug5Cu36hy,5240,amateur-gauze-tiger,13RZtVj6zT1p8QsWwAz6mB25ZJUpXAaAeJtvzFt2FPjhaV934pt,40.02599115272137,-75.30520502048422,8c2aac86dc349ff,0.910125732421875,Bryn Mawr,United States
434,11nsexwTC6qENGVRxTegTQ6F1fnuUjW6X7NLqFU48itD9H4CSSy,5235,,,0,0,,0,fail,fail
435,11kAiDrGr94yUsH9s3NDSRQ7HdsSB8ZiBB7xQ258LHiypj5zaem,5230,rich-ceramic-monkey,13t71L9RRUzeLmAU4m796mHCiTFp6ZcqN9chD9UkrEkMx8NAgbA,49.430632993195545,7.781457896059531,8c1fae4999ad9ff,0.34722900390625,Kaiserslautern,Germany
436,11ZYtCsjXH1n94WEwNEcREDzC5HUPy9bSpY9JSWeUsqZZAC5aHK,5204,young-clear-griffin,14gesndNvzEqqKvNsds49QpxdfnMktiU4R8gaWSAvCZcZG7KbtU,33.13791695392807,-117.08405660247308,8c29a470a4e17ff,0.8024139404296875,Escondido,United States
437,112Aeh48RFtgcGSkvMau3KQK1XRafaseGaQ45DtGWrfi6n7Sghqf,5198,attractive-chrome-gerbil,14Pi7ZnXcCfoQGaQQcXh7pF86BqifxKUQB8F14Ytiq6RxQsgYEf,39.98088919028686,-0.04778307243267975,8c3954b092eabff,0.6666717529296875,Castelló de la Plana,Spain
438,11oJKFUm3r19BLdDPF2dd54VeKhS4fmvgh45s6Sp1N56u5XJSgq,5195,wonderful-ash-goat,14qm2LMdcE2YCtfm4RR27eVpWeEKpMMzRLERa1ZRggqNQ3t3Nkw,51.1863073043832,-2.5466249324637658,8c195b92c4f05ff,0.8333282470703125,Shepton Mallet,United Kingdom
439,11nVJn8ia51Vi6wMWm94pCTqKGp2epZKY8kVCVdHj8f7t2EGn5e,5175,dandy-coal-pony,144uu82JmR5bHTCnnNeaGSA9TgkQ2Xg11biJbg4YgLyskUjjcAy,39.9769605552009,-0.05765821211039433,8c3954b096059ff,1.0,Castelló de la Plana,Spain
440,11EzGHTY5CvnuyCoY2E7etckkR2Sbri68GeLWQcJoRwswYwBpme,5172,fancy-vanilla-goldfish,14LEB1yJTHRwQ2yuNZ1726wpCTnUx6hGusPiM1kUZdL4nyjeGWn,28.03553657053991,-81.92117998842528,8c441a5a324a9ff,1.0,Lakeland,United States
441,11VeCNnBguVVcpqWDxEjKnknRxD9Te5dkRYHrKqxdvT92BAamny,5169,precise-syrup-hamster,13kBkwEwVqty1nFmotuFmDLYWGfaseHJVVkXQP3xnbr1TxSNMvN,53.21589602440635,6.268774533238497,8c196d8d27451ff,1.0,Grootegast,Netherlands
442,1124F512nRttEiZ5mdn1z8zik4sbzWeVQUL7sBcyCT2mZyiyRvF7,5169,quaint-admiral-nightingale,13oSKEtfYYHJHhq2azYSWezYfa4FgXUJN1gnhnrKSu8DTHSSetJ,42.6458906359249,-82.81329046751112,8c2ab66c52961ff,1.0,New Baltimore,United States
443,11T7k8HzyB4VzHN7ZWonh2cQwoP3jCZJbTWEBhFox3rniFugpeb,5168,special-magenta-wren,14Zo9LVamwdZMvXteFY9aQJRZM6QfBEA84yKH5utyt7QbTPZWdb,37.70660952906642,-122.426140894673,8c2830956aec5ff,0.3336639404296875,Daly City,United States
444,112XPJ6us1QHjpFsGJnMyq4RZGvPVY9p7YsmrNJzoNmoZwZZrnDV,5155,modern-fuzzy-salmon,14j8v6igLntWZ9TeQckdwm2j4LrPpgGtvP1X22c4dv6ED5KUZkd,32.7508981704009,-96.82218639507728,8c26cb9a168d3ff,1.0,Dallas,United States
445,11PZDRcG2cy7W6VK4HHXiHQ4EUdzU3cXqcNqyCm18jZRr1XwWuB,5151,mini-tangelo-gerbil,14hk93a4SCCXXazVyn9iGZM18iKsXdk1VJfMPjn1g7xRfygB99Z,45.71700736304755,11.703962134362998,8c1ea430d64c5ff,1.0,Cartigliano,Italy
446,113sKahEbmy6qgs6vYgTnaxJcsTQeSZb3GzzvpRbAqHRmSngpus,5131,suave-chrome-manatee,13RZtVj6zT1p8QsWwAz6mB25ZJUpXAaAeJtvzFt2FPjhaV934pt,40.05846318409048,-75.36621765746519,8c2aac863c019ff,0.9049835205078125,Wayne,United States
447,11MY4DBDdxXKLDmen7ebgBMSkQwXhAdHdnA1NQngvt2YFFuZmTx,5128,creamy-cornflower-hare,14gmKjcQHrY4eyFo5nmjaEzcwcVFM8ft2kwuUKvDs5bF3SGKgSX,39.96712093119553,-75.27919925092371,8c2aacb358abdff,0.91241455078125,Upper Darby,United States
448,112qjhAUEYXmayt557oXZUGSrpuN1hh66hmNp67hmxoX3nPg2UZU,5102,witty-blush-anteater,13UNTLqZxTWATTy4ZVX8KBbX1fQ3mbnBwUjnWguctGi7fiUw62C,44.75392396759908,7.826269567222353,8c1f9aa23b0c9ff,1.0,Martini,Italy
449,112NMT9BvAuL6GRcQ46w6LwLoku93ZxwqW4rQSNK2zRUDgSQxuYg,5097,,,0,0,,0,fail,fail
450,112oku4GTtc9NTtw5KV2PDW8J7RPWPNmjkXAZtJtq4sqSB44yrEz,5090,sneaky-spruce-stallion,143CWvY6DS3ygoRCzbUUPcW1RBVPyCQQteqgDFVcgVVG6AbCc8J,40.65278783012939,-73.95451018414566,8c2a10766483dff,0.099853515625,Brooklyn,United States
451,1124nWGc8H5J5dW8iTgNc81WeYh7E5y5SZfGqo2Yd5pygivXZiPn,5087,scruffy-tweed-chinchilla,14YHZLZGkkwxKbAiJ1jtw7oCNnci6CEbhAVKKAghRPpMAThQgQY,47.2811075292421,7.958687645877084,8c1f83159d913ff,1.0,Zofingen,Switzerland
452,112AhaeYXeHF4vLamyTQXUCPaV66zBfDEjkJWz2s1jSS69BMqg3R,5068,soaring-jetblack-robin,13QtDTYjd12Jq9sJiv7rNyCVhmisDKKyibNrj4rKdZpMhWvCs6B,39.957820463672036,-75.20791817980562,8c2a1348b6d29ff,0.262664794921875,Philadelphia,United States
453,112B9eZS9iDjAPUXBwScHqoN8k9F6Uzw62XtCGdH55uJiaKZ7mJx,5038,polite-carbon-eel,14GB9jse6aBDd3zWqzVCGG6227PegAwLgoNjDVbdVvi1qSJkK3F,38.69678400950696,35.5482199133923,8c2d11484b447ff,0.826446533203125,Talas,Turkey
454,11PMfKK8VYsy9jjobuUwptTgxT1QKffYeAargNSEwhbP9v6fGkB,5038,teeny-mulberry-hippo,13iuX7EPSthbYBox1p9kqrtmrPZNbJamDjH2v152ZWr79zEERAd,51.05003978452344,13.79281123688974,8c1f1b0921151ff,0.8000030517578125,Dresden,Germany
455,116vvEUeZRbGZPwtt6v8hhvs4ew6zFdQBuwhvaRyejPYw2Budgn,5036,thankful-pickle-dove,148idxXgM21uvRwjBksb8doWxedKJwc43LnCGe8y7uHKoSeiKvF,43.123395489299924,-79.1063675342359,8c2b9b3153059ff,0.4705810546875,Niagara Falls,Canada
456,1159wuXQaR6Qmix5Mc18UmEeKLWwKsxauy63ntogLzZfhR7FZc5,5023,bright-fossilized-fish,13pBEcCit3LeLd8FN7h7F8LMmpZFTTkM4pXe2VRF5EAYMuVXGyG,41.65673897242269,-71.6035998111966,8c2a330e856bbff,1.0,West Greenwich,United States
457,11T1fuRd499PpoxcBbNddv9ok8r1AoBGsvpBky63aG1eWkfDkYj,5006,lucky-chrome-rat,14StQ6wwJw9An3xeQ3d1Fd2iB3PS1eto9GNWMegQcPGLB1yeML6,51.590203544025236,4.824960622722833,8c1fa486a0b2dff,0.5,Breda,Netherlands
458,112upP6c4Zmv9Hwedu1uj5Qjbkd84PjsGDQiSVtQ2eDxuqf3fnWp,4982,fluffy-mahogany-hare,13aiwcVRJrkdrxBKoZGCQe45evcT8R77xQi7jopR72wzf667TCS,33.98549362711788,-118.21482690494464,8c29a56de1825ff,0.3134765625,Huntington Park,United States
459,112YzMwkJfNdjqzdSUx8iDBJ9ap8sLFKRLXnTTADD4K7T1a9iKDB,4977,damp-cotton-pangolin,146Cgb6VR5DVFvVSTkPv7SSowWfEF9277n4hyzu27Ar6D69qbPS,49.5576857459212,8.656993973271375,8c1fae643d2c9ff,0.625,Weinheim,Germany
460,1125DAMGT5wTTqZSjUxohztqFwoB45bKfjWMVXc4a7SkktfrzQh2,4973,ripe-frost-hornet,132TQqnrwtexWK1Sf1KPo3LMGF6sYtdKr6kC5XCZ9Wm5ZYafH5h,34.219833617390826,-84.22115621889175,8c44c12dd48e1ff,0.35650634765625,Cumming,United States
461,11e4KtJu6UMV6YAQZQMPrherBXgzi8mJniDYbwcwr3Np9H9E76Y,4973,,,0,0,,0,fail,fail
462,112YL9Duaw3X3WLcPbbUiTWjBYsqZnNi5fhMP53pZyNMi44oNDPQ,4963,itchy-macaroon-dinosaur,14RqCF3i6EoJW6EqfVAh3udsfQxJpjMz1Jt8uAR5d8E7Bqg4e5d,22.636306892005816,120.2810617545403,8c4bb10a4a6d7ff,1.0,Gushan District,Taiwan
463,11yqKtuG2DBvyx53W49ctgaCAWeBFNxvSo7TNZvK62wqgzZJEXQ,4945,,,0,0,,0,fail,fail
464,11YbyNFWkpUfHmj7ryP8XvgJDUHocmGjKmNMou5aBLKhziz8CyU,4944,bitter-blue-raccoon,14CXd1vBvvzfNp7y9mxS74Sgdbxa1VvJa486Uu6DvmdD5CXCJCp,45.78390029118406,11.659427825616973,8c1ea432dd317ff,1.0,Pradipaldo-zeggio,Italy
465,1125XGNr5KEmsMb63n2UCqMr46trB53nqJRngoHyAA3UX8hC5NrA,4941,clean-peanut-vulture,14ncTx66o2LvqPyPXHEdKaDvnpBo6xYAbSX263GsjBE6HA6BEEn,56.66771923102546,16.341446975448747,8c1f2d6b10c29ff,0.8620758056640625,Malmen,Sweden
466,11YCChi4D14RRAWsLMVdcdmfXV8XCRNSWVopccfqvLjpBxG8WDH,4938,fun-peanut-condor,14Dxdoxubtj8zW1G4ccGvonc7Bivz9pfauUJpLA4Myq674v6Ta8,43.00951126568894,-89.71267548101504,8c2758734395dff,1.0,Mount Horeb,United States
467,11Zp6FHKqSZamNNGkmFuUc4afpLZQEdDShrXbmWZMnTWnUn5NzD,4936,elegant-chrome-fly,13Bj6FrKAYYUR9QBZA9py2VzbcyaL8sdQeYr1NeobiSdMST72dY,29.617525436708604,-95.03165706432522,8c446c03309e7ff,0.854217529296875,,United States
468,1124GX2PJiK6XZxW1YvDe4EZGvLcMGAjMNugjf4iqcjhL4kPpz7N,4933,fast-golden-penguin,13LYpLiFG2Bufbhue7pnDwt46ax84mLgfsosJm2YoPnEyWyuWon,45.773828742250664,21.289540047864836,8c1e1928d15d9ff,0.201385498046875,Timișoara,Romania
469,114wspM1cjBo2nryEWoD6VjTSDzGZtXjpb4S1mMatUQdqUxa2c3,4909,joyous-fern-porcupine,14JkyZXuGkVb3L933EnJEdErFDa4izxjh4U4i5PUZoZ3ziDLBEG,45.41478009930849,11.810064574214156,8c1ea42d3a881ff,1.0,Caselle,Italy
470,11CvCAnjUZfMuHohQSKECRRjTW8pikpeKj52tFh5tSkNyoAnnCc,4909,icy-metal-toad,14SphVV4hRmo88XrFbC1Wk7FFhn9jd5itXTAmqMuAY44yquifLL,41.50410775046458,-87.47099094278661,8c26640abcd2bff,1.0,Schererville,United States
471,1122NsWWKEneas95TBBi88LdsCFNV9H5cv15TNfa1wjMjwUZF6xt,4897,itchy-chambray-elk,133cR7sNjv4XeYwRgx4fgPy1Lv4GZS3UWdWDpimn8qpxbgNitZe,21.341986054205528,-157.9076557840725,8c464b9606b69ff,0.4694061279296875,Honolulu,United States
472,112TdPVRTDJm5WtYv2kkVPaaytgG5Duiuw14KFBGgL8hedCpjCSt,4894,odd-paisley-tapir,13CqkwDkmYvzwpa9PfyWEesDxp8LSXgcSPLojVErW1eAJVT5S6E,33.45795735330455,-112.39767835189384,8c29b69b018d7ff,1.0,Goodyear,United States
473,112t6uY41BQXHTWPUMjhjkHVgw5EgqCaqh8ukNE4jQxnTPhbBGTF,4883,big-peach-crow,14kQrPnxRn1jMCNsUKQn58kymnZDYeCDfGJGcppaq6bu5vVj9vW,23.927090052146585,120.6523695298202,8c4ba28c64695ff,1.0,Nantou City,Taiwan
474,11TxNstYZx7YdmtCf9G7LTZoTrb7AUGnautHn3G6ArZbgWgnLaM,4881,careful-teal-lobster,14iu1B11GPB48H2NvmvYEyGYLJeaeE8dYQA6Qgr1ZoANzK19Ru8,45.447142106830526,11.768107242689345,8c1ea42d400c1ff,1.0,Villafranca padovana,Italy
475,1126ybvrSXrjTcWSME38WDQxg6gMaGabjmUuX2JqWo2hLfAAv7sz,4881,rapid-brick-snake,13SSDEhzBDSDeWk4QSSdmcGAYJmuZMt9AVmbyefwFxN9sDuwHs6,23.92767151389494,120.66214852740137,8c4ba28c2926bff,1.0,Nantou City,Taiwan
476,112m7oUFebyxtjjDHafMh61FkCg1Rwc8ncgiphiQyvMbCmxgrCnu,4844,energetic-brown-penguin,13NGfwWQzWtCHsedkHdQMsTXUMLD4gNSAcT2RDFP8kjTcarUZFV,52.231573822286066,5.462406389457723,8c196911d8c97ff,0.7483673095703125,Nijkerk,Netherlands
477,11QzBxtcHSeSxLfQkkp7syUYCtzphfjjPR1Bkzkmd6ints1CaBu,4838,innocent-hotpink-orca,14cHTwZf5JPKaKGs76RKhezcwpKdqLfQ4JG88DdDY2VP8AhznCV,45.798673323788364,-74.03837699384327,8c2b819632b3bff,1.0,Saint-Jérôme,Canada
478,112ktfXf618fUyWwrBGxUxzgZqNyJnJcpNino3UNGHNz2WYovHRe,4834,gigantic-mossy-goblin,14siz8nME4ZS9uWCN5XiTGJffSDL22vxrYsWiJCgDAMpc5gnoCy,49.97127097537489,9.14249671786682,8c1fa8c95768dff,1.0,Aschaffenburg,Germany
479,11ND8dcRTErpp8mggpEqaXbNV5Ks4bsyZo52e3qCH3HpDrJsNdy,4823,obedient-lead-donkey,13g9XMSp8Fu22vxowR4HfVoFnFrY7PyZfYRhku6NbJ3bMsqz4W8,45.804153947926444,11.656009607097168,8c1ea4ad380b1ff,0.8333282470703125,Rubbio,Italy
480,11VfmcigamThJVP5ART2N8qDP9mZY7xSzPF6ZFHSiUd6XU1kjNZ,4811,slow-syrup-rattlesnake,134dGZevperxSe45PsxMG4R7PfgmhJuQc2aLfbzvW3gbgTKJARv,37.77492392281597,-122.41950107861489,8c283082800b3ff,0.004058837890625,San Francisco,United States
481,112U1mguKp5oKtRemCv2XB9pPQD1BVeKbqTWF9tnT4oNxrPUdVku,4810,long-chili-eel,14nkxB1fMMEYa8gaTLc3sH18FBBJaPF3o6DBuhduPH1amuamDNA,48.86621291538088,-122.48547096725552,8c28d179a90c3ff,0.5,Lynden,United States
482,112aq7cjo1V97H3ttSB2ofWafL9QhVvm52rwwiTBXCpXHV8YanxP,4775,proud-stone-mule,13oDY6L7iwu7TZJEb1wdaMR8df1TWf5srTUPL3dd5uV7qQfH4zZ,36.103401641112285,-79.45208336601762,8c2a8b14aaf49ff,0.5,Burlington,United States
483,11gNFP2uPtRfGv8VwCXoV1z8qQGdC9owJcPxtc13UCYB1whk5VJ,4766,tall-quartz-iguana,13bfVK3tPzXAGhVKUauz4X9jY7YnTfBsAbEWmkUzCtGoGWfh52T,34.03757206834483,-118.50165289876622,8c29a198ddae9ff,0.378875732421875,Santa Monica,United States
484,1121LRCdgv44KR4pSDegJqJNzE8rRVY4Gkk76uMqypvmzW9dbWTq,4757,muscular-burlap-ant,13sqc4xkykaM5jBM73FbPJ8NdzDRRJcTAnEHwRagbe7F3LaVA7M,45.81172700862729,11.744733310625184,8c1ea4ad99869ff,1.0,Romano d'Ezzelino,Italy
485,11tbXSnQevESvifFEh8fkNzEnJBLZYSWYqN9nwPU686xTouDzvc,4730,custom-goldenrod-pelican,14BeT6SokEqC2jFfkBHT1cGGVDkKkZbfKH8uktcaYDkgUuVhdso,25.12343838024527,121.51365755357425,8c4ba56967525ff,1.0,Beitou District,Taiwan
486,112VcKQ9G2KQovZg4Geq54phFJFfqLYsPnAa2fQPYNpDRjEroTCL,4725,short-rainbow-mantis,13jrXFer2LFECc4LtTTPartgrt4Vg7ZJDMcchVpNCW7iWFXQ3eG,43.079074794994966,-70.75894457898454,8c2a30d5a355bff,1.0,Portsmouth,United States
487,112oa5A61GEpBfmSp198DnprXz82KwQPaaDwrC51MKkpndsfmGtq,4717,happy-gingerbread-squirrel,13zyULWzbDyHQTKdjaeWXWriooPUw1p9uy5hhzYQVqbSuipNQVv,28.05817441850352,-16.625255313816773,8c344c5060001ff,1.0,Santa Cruz de Tenerife,Spain
488,112DnuAsDuMPEcC42UV4u3wr37WbzBBmxX6tmqsSTv7rZVuopLEf,4708,mythical-fuchsia-mole,14PU36NEjydauBYaF2bmdMe93Mqp6AdmsFJwakHBJGDU2mYFsit,29.65035977329816,-95.03582846258722,8c446c0152de7ff,0.854217529296875,La Porte,United States
489,11gGCB84E2Pm6KtXcsmvHCC32pS2MRLVbnfYpaaLTr7vc1QDYJX,4705,quick-crepe-nightingale,14VAzvnEy4bvGeowbVQcAgLm9eEWxS5qeg7K7WXEkF9mtDjxVbh,40.00624738520508,-75.24959196317208,8c2a13498833bff,0.4016265869140625,Merion Station,United States
490,112k2ckbhh9WAaw7QY3n5aZWoBN6J9PkUKqGxcw4ErpHFJWg6H8Y,4704,sharp-steel-mallard,13KpybuuMdV66TsjRZBgVv3fFk6BKNqnN3Cn15xXDLxzrJmZiYe,43.64051721994446,1.4528718931636926,8c39601134d4bff,1.0,Toulouse,France
491,112qYc2nKsjpYKc2BPsDe6GLkZfA3hzqk1zpgVTRRjJt7711EgSu,4703,chilly-flaxen-wallaby,14P3s3qUxhGDCZrcNrrBUqzz1NCXNVbnYSV589VcstNUsfcBQtB,46.425046400508556,6.232741261515433,8c1f91a6474edff,1.0,Coinsins,Switzerland
